[{"name":"Etablissement public hospitalier Slimane Amirat","address":"مستشفى سليمان عميران","region":"Batna","phone":null,"latitude":35.385216,"longitude":5.366271,"osm_id":"358669142","facility_type":"hospital"},{"name":"Policlinique","address":"عيادة","region":"Béchar","phone":null,"latitude":31.623853,"longitude":-2.206377,"osm_id":"422701221","facility_type":"hospital"},{"name":"Hôpital de Aïn El Berd","address":null,"region":"Sidi Bel Abbès","phone":null,"latitude":35.365213,"longitude":-0.51135,"osm_id":"367163094","facility_type":"hospital"},{"name":"Hopital psychiatrique de TENES مستشفى الأمراض النفسية","address":"مستشفى الأمراض النفسية","region":"Chlef","phone":null,"latitude":36.503402,"longitude":1.269852,"osm_id":"345811330","facility_type":"hospital"},{"name":"Salle des soins","address":"قاعة علاج","region":"Naâma","phone":null,"latitude":32.869112,"longitude":0.026643,"osm_id":"388390892","facility_type":"hospital"},{"name":"Hôpital de Rouiba","address":"مستشفى الرويبة","region":"Boumerdès","phone":null,"latitude":36.734914,"longitude":3.28587,"osm_id":"366377637","facility_type":"hospital"},{"name":"عيادة متعددة الخدمات","address":"عيادة متعددة الخدمات","region":"Jijel","phone":null,"latitude":36.666293,"longitude":6.021869,"osm_id":"783868531","facility_type":"hospital"},{"name":"Ibn Ziad Centre Medical","address":null,"region":"Constantine","phone":null,"latitude":36.38177,"longitude":6.470385,"osm_id":"1116546512","facility_type":"hospital"},{"name":"CHU Makour Hamou","address":"المؤسسة العمومية الاستشفائية مكور حمو","region":"Aïn Defla","phone":null,"latitude":36.265148,"longitude":1.963973,"osm_id":"206604886","facility_type":"hospital"},{"name":"Hadiouch Saleh Polyclinic","address":null,"region":"Bouira","phone":null,"latitude":36.295599,"longitude":3.669384,"osm_id":"564595560","facility_type":"hospital"},{"name":"polyclinique Ben Azouz عيادة متعددة الخدمات بن عزوز","address":"عيادة متعددة الخدمات بن عزوز","region":"Blida","phone":null,"latitude":36.644838,"longitude":2.768856,"osm_id":"337414327","facility_type":"hospital"},{"name":"Hôpital Sidi Bouabida","address":"مستشفى سيدي بوعبيدة","region":"Aïn Defla","phone":null,"latitude":36.228727,"longitude":1.71919,"osm_id":"204812435","facility_type":"hospital"},{"name":"مستشفى المجاهد بهون موسى","address":"مستشفى المجاهد بهون موسى","region":"Ghardaïa","phone":null,"latitude":32.855407,"longitude":3.745462,"osm_id":"1174840092","facility_type":"hospital"},{"name":"مستشفى مجدوب سعيد","address":"مستشفى مجدوب سعيد","region":"Jijel","phone":null,"latitude":36.789344,"longitude":5.907507,"osm_id":"250957947","facility_type":"hospital"},{"name":"Hôpital Dr. Med Seghir Nekkache","address":null,"region":"Oran","phone":null,"latitude":35.825174,"longitude":-0.352733,"osm_id":"384990628","facility_type":"hospital"},{"name":"Hôpital","address":"المستشفى","region":"Batna","phone":null,"latitude":35.38037,"longitude":5.378714,"osm_id":"358424215","facility_type":"hospital"},{"name":"Centre d'acceuil pour enfants à besoins particuliers","address":null,"region":"Aïn Defla","phone":null,"latitude":36.333582,"longitude":2.156716,"osm_id":"243292925","facility_type":"hospital"},{"name":"Centre anticancéreux","address":null,"region":"Sidi Bel Abbès","phone":null,"latitude":35.177373,"longitude":-0.646912,"osm_id":"178877409","facility_type":"hospital"},{"name":"Hôpital de Collo","address":null,"region":"Skikda","phone":null,"latitude":37.009692,"longitude":6.55812,"osm_id":"386001096","facility_type":"hospital"},{"name":"Hopital De Ain Berda","address":null,"region":"Guelma","phone":null,"latitude":36.650964,"longitude":7.589978,"osm_id":"666037281","facility_type":"hospital"},{"name":"المستشفى الكبير","address":"المستشفى الكبير","region":"Djelfa","phone":null,"latitude":34.156624,"longitude":3.485097,"osm_id":"334338074","facility_type":"hospital"},{"name":"centre de santé","address":null,"region":"Sidi Bel Abbès","phone":null,"latitude":35.200068,"longitude":-0.647721,"osm_id":"219436032","facility_type":"hospital"},{"name":"Hôpital de Bouhanifia","address":null,"region":"Mascara","phone":null,"latitude":35.300407,"longitude":-0.059972,"osm_id":"366404887","facility_type":"hospital"},{"name":"Établissement — المستشفى","address":"المستشفى","region":"Chlef","phone":null,"latitude":36.119449,"longitude":0.867535,"osm_id":"313431778","facility_type":"hospital"},{"name":"Centre de rééducation militaire","address":null,"region":"Alger","phone":null,"latitude":36.731823,"longitude":2.887092,"osm_id":"245965240","facility_type":"hospital"},{"name":"Polyclinique","address":null,"region":"Oran","phone":null,"latitude":35.725374,"longitude":-0.545214,"osm_id":"714626902","facility_type":"hospital"},{"name":"Hôpital Azur Plage","address":null,"region":"Alger","phone":null,"latitude":36.736745,"longitude":2.845164,"osm_id":"347755866","facility_type":"hospital"},{"name":"EPSP Hopital Saïd Hamiane","address":null,"region":"Boumerdès","phone":null,"latitude":36.407559,"longitude":3.307641,"osm_id":"424732012","facility_type":"hospital"},{"name":"عيادة متعددة الخدمات سلمي احمد","address":"عيادة متعددة الخدمات سلمي احمد","region":"Ouled Djellal","phone":null,"latitude":34.448462,"longitude":5.062275,"osm_id":"441285659","facility_type":"hospital"},{"name":"قاعة علاج مرغاد لخضر","address":"قاعة علاج مرغاد لخضر","region":"Ouled Djellal","phone":null,"latitude":34.426066,"longitude":5.044792,"osm_id":"310260609","facility_type":"hospital"},{"name":"قاعة علاج شبيرة معمر","address":"قاعة علاج شبيرة معمر","region":"Ouled Djellal","phone":null,"latitude":34.435229,"longitude":5.073838,"osm_id":"310449934","facility_type":"hospital"},{"name":"Hôpital d'Aokas","address":"مستشفى أوقاس","region":"Béjaïa","phone":null,"latitude":36.637578,"longitude":5.240498,"osm_id":"695848762","facility_type":"hospital"},{"name":"Établissement — المشرية","address":null,"region":"Naâma","phone":null,"latitude":33.547386,"longitude":-0.279338,"osm_id":"613872715","facility_type":"hospital"},{"name":"مستشفى","address":"مستشفى","region":"El M'Ghair","phone":null,"latitude":33.953739,"longitude":5.910108,"osm_id":"393013773","facility_type":"hospital"},{"name":"قاعة العلاج . حاسي الفحل","address":"قاعة العلاج . حاسي الفحل","region":"Ghardaïa","phone":null,"latitude":31.605291,"longitude":3.677395,"osm_id":"783039579","facility_type":"hospital"},{"name":"centre de santé","address":null,"region":"Guelma","phone":null,"latitude":36.44579,"longitude":7.309187,"osm_id":"345135132","facility_type":"hospital"},{"name":"عيادة خارجية مستشفى الرابوني","address":"عيادة خارجية مستشفى الرابوني","region":"Tindouf","phone":null,"latitude":27.482057,"longitude":-8.081568,"osm_id":"783904621","facility_type":"hospital"},{"name":"مستشفى جراحة القلب الرياض بن شيكو","address":"مستشفى جراحة القلب الرياض بن شيكو","region":"Constantine","phone":null,"latitude":36.35599,"longitude":6.652977,"osm_id":"700486655","facility_type":"hospital"},{"name":"Hôpital Ophtalmologique Cubain Djelfa","address":null,"region":"Djelfa","phone":null,"latitude":34.657471,"longitude":3.261588,"osm_id":"375411408","facility_type":"hospital"},{"name":"مستشفى الطارف","address":"مستشفى الطارف","region":"El Tarf","phone":null,"latitude":36.763172,"longitude":8.32428,"osm_id":"459850980","facility_type":"hospital"},{"name":"Etablissement hospitalier privé les Amandiers","address":null,"region":"Tizi Ouzou","phone":null,"latitude":36.702666,"longitude":4.239314,"osm_id":"783039982","facility_type":"hospital"},{"name":"ancienne urgence","address":null,"region":"Mila","phone":null,"latitude":36.169694,"longitude":6.177681,"osm_id":"804297772","facility_type":"hospital"},{"name":"مستوصف","address":"مستوصف","region":"Médéa","phone":null,"latitude":36.262319,"longitude":3.034675,"osm_id":"783094439","facility_type":"hospital"},{"name":"Clinique obstétrique","address":"مستشفى التوليد","region":"Skikda","phone":null,"latitude":36.834689,"longitude":6.643082,"osm_id":"250923636","facility_type":"hospital"},{"name":"المؤسسة العمومية الاستشفائية","address":"المؤسسة العمومية الاستشفائية","region":"Tébessa","phone":null,"latitude":35.367102,"longitude":8.243466,"osm_id":"410074848","facility_type":"hospital"},{"name":"Infirmerie","address":null,"region":"Jijel","phone":null,"latitude":36.817726,"longitude":5.896699,"osm_id":"661099156","facility_type":"clinic"},{"name":"Hopital de Khemis Miliana","address":null,"region":"Aïn Defla","phone":null,"latitude":36.257721,"longitude":2.233033,"osm_id":"1231927460","facility_type":"hospital"},{"name":"Centre d'imagerie scintigraphique","address":null,"region":"Blida","phone":null,"latitude":36.488128,"longitude":2.788911,"osm_id":"1231875802","facility_type":"hospital"},{"name":"العيادة متعددة الخدمات الشهيد نور خرخاش معمر","address":"العيادة متعددة الخدمات الشهيد نور خرخاش معمر","region":"Ouled Djellal","phone":null,"latitude":34.638683,"longitude":5.388703,"osm_id":"385221178","facility_type":"hospital"},{"name":"centre de santé Ras el Ain","address":null,"region":"Oran","phone":null,"latitude":35.701309,"longitude":-0.654291,"osm_id":"867319084","facility_type":"hospital"},{"name":"المؤسسة الاستشفائية للصحة الجوارية أحمد بن بلة","address":"المؤسسة الاستشفائية للصحة الجوارية أحمد بن بلة","region":"Khenchela","phone":null,"latitude":35.449546,"longitude":7.118935,"osm_id":"462946560","facility_type":"hospital"},{"name":"Hopital des Grands Brûlés","address":"مستشفى الحروق","region":"Oran","phone":null,"latitude":35.693703,"longitude":-0.584656,"osm_id":"569378953","facility_type":"clinic"},{"name":"مستشفى الجلفة","address":"مستشفى الجلفة","region":"Djelfa","phone":null,"latitude":34.663194,"longitude":3.264086,"osm_id":"359642546","facility_type":"hospital"},{"name":"مستشفى الشارف","address":"مستشفى الشارف","region":"Djelfa","phone":null,"latitude":34.618938,"longitude":2.806946,"osm_id":"552167928","facility_type":"hospital"},{"name":"عروة","address":"عروة","region":"Alger","phone":null,"latitude":36.741181,"longitude":3.039456,"osm_id":"398716275","facility_type":"hospital"},{"name":"دكتورة غلاتي أ","address":"دكتورة غلاتي أ","region":"Alger","phone":null,"latitude":36.725242,"longitude":3.052722,"osm_id":"783862892","facility_type":"hospital"},{"name":"المؤسسة الاستشفائية للصحة الجوارية عمار بوزيد القالة","address":"المؤسسة الاستشفائية للصحة الجوارية عمار بوزيد القالة","region":"El Tarf","phone":null,"latitude":36.895582,"longitude":8.4433,"osm_id":"460216565","facility_type":"hospital"},{"name":"Polyclinique les palmiers","address":null,"region":"Oran","phone":null,"latitude":35.674278,"longitude":-0.646265,"osm_id":"865918187","facility_type":"hospital"},{"name":"المستشفى جانت العام EPH Djanet","address":"المستشفى جانت العام","region":"Djanet","phone":null,"latitude":24.477772,"longitude":9.509189,"osm_id":"355334829","facility_type":"hospital"},{"name":"مستشفى عبد العزبز خالدي","address":"مستشفى عبد العزبز خالدي","region":"Tébessa","phone":null,"latitude":35.402283,"longitude":8.11714,"osm_id":"209396673","facility_type":"hospital"},{"name":"مستشفى الجديد تقرت","address":"مستشفى الجديد تقرت","region":"Touggourt","phone":null,"latitude":33.118474,"longitude":6.058874,"osm_id":"364207861","facility_type":"hospital"},{"name":"Hôpital Ben Merad El Meki","address":"مستشفى بن مَرّاد المَكِّي","region":"Béjaïa","phone":null,"latitude":36.641154,"longitude":4.894443,"osm_id":"477325464","facility_type":"hospital"},{"name":"مركز الصحة حجر الديس","address":"مركز الصحة حجر الديس","region":"Annaba","phone":null,"latitude":36.786626,"longitude":7.616005,"osm_id":"296435292","facility_type":"hospital"},{"name":"المستشفى الجهوية سوق أهراس","address":"المستشفى الجهوية سوق أهراس","region":"Souk Ahras","phone":null,"latitude":36.281979,"longitude":7.963808,"osm_id":"297680792","facility_type":"hospital"},{"name":"Hôpital de Larbâa N'Aït Irathen","address":null,"region":"Tizi Ouzou","phone":null,"latitude":36.644711,"longitude":4.199228,"osm_id":"319119439","facility_type":"hospital"},{"name":"Établissement — Bouira","address":null,"region":"Bouira","phone":null,"latitude":36.381552,"longitude":3.901312,"osm_id":"573277819","facility_type":"hospital"},{"name":"عيادة متعددة الخدمات","address":null,"region":"El Oued","phone":null,"latitude":33.405356,"longitude":6.855134,"osm_id":"1009297823","facility_type":"clinic"},{"name":"مستشفى","address":"مستشفى","region":"Tamanrasset","phone":null,"latitude":22.798153,"longitude":5.527612,"osm_id":"562426300","facility_type":"hospital"},{"name":"Centre hospitalier d'urgence le 8 mai 1945","address":"المستشفى الإستعجالي 8 ماي","region":"El Oued","phone":null,"latitude":33.396658,"longitude":6.881865,"osm_id":"454099601","facility_type":"hospital"},{"name":"مركز الصحي أم الطبول","address":"مركز الصحي أم الطبول","region":"El Tarf","phone":null,"latitude":36.881464,"longitude":8.564707,"osm_id":"426806198","facility_type":"hospital"},{"name":"قاعة العلاج البور","address":"قاعة العلاج البور","region":"Ouargla","phone":null,"latitude":32.162237,"longitude":5.341489,"osm_id":"440386029","facility_type":"hospital"},{"name":"Centre Medical Oujlida","address":null,"region":"Tlemcen","phone":null,"latitude":34.92158,"longitude":-1.33055,"osm_id":"406072472","facility_type":"hospital"},{"name":"محمد الصادق بن يحي","address":null,"region":"Batna","phone":null,"latitude":35.526647,"longitude":6.202312,"osm_id":"783879214","facility_type":"hospital"},{"name":"عيادة متعددة الخدمات","address":"عيادة متعددة الخدمات","region":"Biskra","phone":null,"latitude":34.94546,"longitude":5.994649,"osm_id":"783084933","facility_type":"hospital"},{"name":"Hôpital psychiatrique d'El Madher","address":"مستشفى الأمراض العقلية سابقا","region":"Batna","phone":null,"latitude":35.623938,"longitude":6.369093,"osm_id":"782986915","facility_type":"hospital"},{"name":"المؤسسة العمومية الاستشفائية لحي القدس","address":"المؤسسة العمومية الاستشفائية لحي القدس","region":"Djelfa","phone":null,"latitude":34.173492,"longitude":3.502445,"osm_id":"783846909","facility_type":"hospital"},{"name":"Hôpital Cité Chouhada","address":"مستشفى حي الشهداء","region":"El Oued","phone":null,"latitude":33.342366,"longitude":6.872057,"osm_id":"462421104","facility_type":"hospital"},{"name":"Hôpital Meslem Tayeb","address":"مستشفى مسلم الطيب","region":"Mascara","phone":null,"latitude":35.399849,"longitude":0.158792,"osm_id":"604994248","facility_type":"hospital"},{"name":"Hôpital-Maternité","address":"حمدان بختة","region":"Saïda","phone":null,"latitude":34.840136,"longitude":0.156055,"osm_id":"315333707","facility_type":"hospital"},{"name":"Hôpital","address":null,"region":"Khenchela","phone":null,"latitude":35.319065,"longitude":6.744266,"osm_id":"435007188","facility_type":"hospital"},{"name":"Polyclinique","address":null,"region":"Batna","phone":null,"latitude":35.482549,"longitude":6.626206,"osm_id":"783054336","facility_type":"hospital"},{"name":"Hôpital de Kaïs","address":"مستشفى حيحي عبد المجيد","region":"Khenchela","phone":null,"latitude":35.490794,"longitude":6.934576,"osm_id":"339556853","facility_type":"hospital"},{"name":"Hopital de Trone","address":"https://www.sante.gov.ma/","region":"Tlemcen","phone":null,"latitude":34.480019,"longitude":-1.76302,"osm_id":"307556884","facility_type":"hospital"},{"name":"مستشفى الولادة تقرت","address":"مستشفى الولادة تقرت","region":"Touggourt","phone":null,"latitude":33.110535,"longitude":6.074526,"osm_id":"364210942","facility_type":"hospital"},{"name":"المؤسسة العمومية للصحة الجوارية الطالب العربي","address":"المؤسسة العمومية للصحة الجوارية الطالب العربي","region":"El Oued","phone":null,"latitude":33.729436,"longitude":7.517152,"osm_id":"738345429","facility_type":"hospital"},{"name":"مستشفى الرقيبة","address":"مستشفى الرقيبة","region":"El Oued","phone":null,"latitude":33.563843,"longitude":6.715134,"osm_id":"783088425","facility_type":"hospital"},{"name":"عيادة الامل","address":"عيادة الامل","region":"Oum El Bouaghi","phone":null,"latitude":35.795872,"longitude":7.382594,"osm_id":"584242914","facility_type":"hospital"},{"name":"المستشفى القديم","address":null,"region":"Oum El Bouaghi","phone":null,"latitude":35.791654,"longitude":7.3909,"osm_id":"783014705","facility_type":"hospital"},{"name":"عيادة الأمير","address":"عيادة الأمير","region":"Oum El Bouaghi","phone":null,"latitude":35.801377,"longitude":7.391781,"osm_id":"783869318","facility_type":"hospital"},{"name":"Salle de soins","address":"قاعة العلاج","region":"Alger","phone":null,"latitude":36.721319,"longitude":3.050608,"osm_id":"477373398","facility_type":"hospital"},{"name":"الأمومة العبادلة","address":"الأمومة العبادلة","region":"Béchar","phone":null,"latitude":31.026697,"longitude":-2.706374,"osm_id":"257152997","facility_type":"hospital"},{"name":"مستشفى عبادلة","address":"مستشفى عبادلة","region":"Béchar","phone":null,"latitude":31.001584,"longitude":-2.746518,"osm_id":"257159516","facility_type":"hospital"},{"name":"Hôpital Slimane Amirat","address":"Hôpital Slimane Amirat ( الباطوار)","region":"Constantine","phone":null,"latitude":36.01753,"longitude":6.56967,"osm_id":"276272368","facility_type":"hospital"},{"name":"مستشفى محمد يعقوب","address":"مستشفى محمد يعقوب","region":"Béni Abbès","phone":null,"latitude":30.129225,"longitude":-2.160789,"osm_id":"309955415","facility_type":"hospital"},{"name":"Dispensaire Ich","address":null,"region":"Naâma","phone":null,"latitude":32.515536,"longitude":-1.003943,"osm_id":"307687123","facility_type":"hospital"},{"name":"SASSI","address":null,"region":"Béchar","phone":null,"latitude":31.614613,"longitude":-2.215193,"osm_id":"273680169","facility_type":"hospital"},{"name":"polyclinique Croix Rouge","address":null,"region":"Béchar","phone":null,"latitude":31.615611,"longitude":-2.20638,"osm_id":"281228029","facility_type":"hospital"},{"name":"Centre hospitalier","address":"المركز الاستشفائي","region":"Naâma","phone":null,"latitude":32.864502,"longitude":0.025464,"osm_id":"388549782","facility_type":"clinic"},{"name":"عميرة عكوش","address":"عميرة عكوش","region":"Laghouat","phone":null,"latitude":33.750236,"longitude":2.998815,"osm_id":"783111252","facility_type":"hospital"},{"name":"مستوصف الوئام","address":"مستوصف الوئام","region":"Laghouat","phone":null,"latitude":33.785095,"longitude":2.847269,"osm_id":"369946010","facility_type":"hospital"},{"name":"مستشفى 240 سريـر بالأغواط العقيد لطفي","address":"مستشفى 240 سريـر بالأغواط","region":"Laghouat","phone":null,"latitude":33.791332,"longitude":2.849185,"osm_id":"369947102","facility_type":"hospital"},{"name":"Hôpital Oncologie Béchar (CAC)","address":"مستشفى امراص السرطان","region":"Béchar","phone":null,"latitude":31.639414,"longitude":-2.193371,"osm_id":"274050079","facility_type":"hospital"},{"name":"مستشفى عين غار","address":"مستشفى عين غار","region":"In Salah","phone":null,"latitude":27.107124,"longitude":1.909827,"osm_id":"783019304","facility_type":"hospital"},{"name":"المؤسسة العمومية الاستشفائية برقان","address":"المؤسسة العمومية الاستشفائية برقان","region":"Adrar","phone":null,"latitude":26.721547,"longitude":0.169857,"osm_id":"783876753","facility_type":"hospital"},{"name":"العيادة المتعددة الخدمات الجديدة عين صالح","address":"العيادة المتعددة الخدمات الجديدة عين صالح","region":"In Salah","phone":null,"latitude":27.185146,"longitude":2.490272,"osm_id":"783081628","facility_type":"hospital"},{"name":"مستشفى تاجموت","address":"مستشفى تاجموت","region":"Laghouat","phone":null,"latitude":33.880603,"longitude":2.527134,"osm_id":"783037335","facility_type":"hospital"},{"name":"Établissement — مستشفى محمد بوضياف","address":"مستشفى محمد بوضياف","region":"El Bayadh","phone":null,"latitude":33.672276,"longitude":1.016028,"osm_id":"244191965","facility_type":"hospital"},{"name":"Hôpital Ben Adjila","address":"مستشفى احميدة بن عجيلة","region":"Laghouat","phone":null,"latitude":33.806027,"longitude":2.857821,"osm_id":"42692294","facility_type":"hospital"},{"name":"عيادة الحكيم فراجي","address":"عيادة الحكيم فراجي","region":"Bordj Badji Mokhtar","phone":null,"latitude":21.330577,"longitude":0.949149,"osm_id":"783902178","facility_type":"hospital"},{"name":"Dispensaire","address":"A.M.T https://goo.gl/zZpPBP","region":"Adrar","phone":null,"latitude":27.87618,"longitude":-0.301963,"osm_id":"432338886","facility_type":"hospital"},{"name":"مركز الوسيط لعلاج المدمنين","address":"مركز الوسيط لعلاج المدمنين","region":"Adrar","phone":null,"latitude":27.876208,"longitude":-0.324907,"osm_id":"346376984","facility_type":"hospital"},{"name":"المؤسسة العمومية للصحة الجوارية","address":"المؤسسة العمومية للصحة الجوارية قاسمي ابراهيم","region":"Ouled Djellal","phone":null,"latitude":34.42937,"longitude":5.069347,"osm_id":"306753008","facility_type":"hospital"},{"name":"قاعة علاج","address":"قاعة علاج","region":"Ouled Djellal","phone":null,"latitude":34.39939,"longitude":5.009969,"osm_id":"316448041","facility_type":"hospital"},{"name":"مركز تصفية الدم","address":"مركز تصفية الدم","region":"Ghardaïa","phone":null,"latitude":32.49261,"longitude":3.683101,"osm_id":"783898439","facility_type":"hospital"},{"name":"قاعة الاستعجالات","address":"قاعة الاستعجالات","region":"Batna","phone":null,"latitude":35.380002,"longitude":5.898244,"osm_id":"783115053","facility_type":"hospital"},{"name":"Hôpital 18 fevrier","address":null,"region":"Ghardaïa","phone":null,"latitude":32.2631,"longitude":3.624431,"osm_id":"416251569","facility_type":"hospital"},{"name":"Hôpital","address":null,"region":"Ghardaïa","phone":null,"latitude":32.793819,"longitude":4.516433,"osm_id":"934704588","facility_type":"clinic"},{"name":"المؤسسة العمومية الاستشفائية -البرواقية-","address":"المؤسسة العمومية الاستشفائية -البرواقية-","region":"Médéa","phone":null,"latitude":36.135196,"longitude":2.914683,"osm_id":"187960952","facility_type":"hospital"},{"name":"الإستعجالات الطبية الجراحية","address":"الإستعجالات الطبية الجراحية","region":"Médéa","phone":null,"latitude":35.644047,"longitude":3.226989,"osm_id":"363129199","facility_type":"hospital"},{"name":"Établissement — ششار","address":null,"region":"Khenchela","phone":null,"latitude":35.040169,"longitude":7.001824,"osm_id":"783037698","facility_type":"hospital"},{"name":"Polyclinique Les Planteurs II","address":null,"region":"Oran","phone":null,"latitude":35.698658,"longitude":-0.664766,"osm_id":"846654542","facility_type":"hospital"},{"name":"Établissement — قاعة علاج","address":"قاعة علاج","region":"Chlef","phone":null,"latitude":36.511211,"longitude":1.570083,"osm_id":"345008359","facility_type":"hospital"},{"name":"مستشفى العقيد مصطفى شعباني","address":"مستشفى العقيد مصطفى شعباني","region":"El Meniaa","phone":null,"latitude":30.599807,"longitude":2.885697,"osm_id":"249807273","facility_type":"hospital"},{"name":"Établissement — بشار","address":null,"region":"Béchar","phone":null,"latitude":31.627148,"longitude":-2.21691,"osm_id":"273680170","facility_type":"hospital"},{"name":"Urgences médicale","address":null,"region":"Tizi Ouzou","phone":null,"latitude":36.892244,"longitude":4.126623,"osm_id":"783897876","facility_type":"hospital"},{"name":"Hôpital d'El Atteuf","address":null,"region":"Ghardaïa","phone":null,"latitude":32.480405,"longitude":3.744264,"osm_id":"783877144","facility_type":"hospital"},{"name":"Clinique de Bir morad rais","address":null,"region":"Alger","phone":null,"latitude":36.734839,"longitude":3.034413,"osm_id":"783877345","facility_type":"hospital"},{"name":"dispensaire","address":null,"region":"Tizi Ouzou","phone":null,"latitude":36.843373,"longitude":3.987634,"osm_id":"783883438","facility_type":"hospital"},{"name":"مستشفى أولاد ميمون","address":"مستشفى أولاد ميمون","region":"Tlemcen","phone":null,"latitude":34.904953,"longitude":-1.032942,"osm_id":"783051248","facility_type":"hospital"},{"name":"Établissement — مديونة","address":null,"region":"Relizane","phone":null,"latitude":36.122245,"longitude":0.744208,"osm_id":"782781229","facility_type":"hospital"},{"name":"المؤسسة الصحة العامة حجاج","address":"المؤسسة الصحة العامة حجاج","region":"Mostaganem","phone":null,"latitude":36.096066,"longitude":0.325045,"osm_id":"783044476","facility_type":"hospital"},{"name":"المستشفى القديم","address":"المستشفى القديم","region":"Ouled Djellal","phone":null,"latitude":34.395921,"longitude":4.99778,"osm_id":"322310155","facility_type":"hospital"},{"name":"Hôpital Dellys","address":null,"region":"Tizi Ouzou","phone":null,"latitude":36.916737,"longitude":3.895096,"osm_id":"783106322","facility_type":"hospital"},{"name":"Polyclinique","address":null,"region":"Sétif","phone":null,"latitude":35.758616,"longitude":5.214096,"osm_id":"783081273","facility_type":"hospital"},{"name":"Maternité","address":null,"region":"Mostaganem","phone":null,"latitude":35.924755,"longitude":0.096107,"osm_id":"783084296","facility_type":"hospital"},{"name":"Maillot","address":null,"region":"Alger","phone":null,"latitude":36.79,"longitude":3.046151,"osm_id":"783041257","facility_type":"hospital"},{"name":"médecine du travail","address":null,"region":"Sétif","phone":null,"latitude":36.180853,"longitude":5.404641,"osm_id":"667055460","facility_type":"hospital"},{"name":"Hopital Selmane","address":null,"region":"M'Sila","phone":null,"latitude":35.690933,"longitude":4.769955,"osm_id":"783037996","facility_type":"hospital"},{"name":"policlinique Diar Zarga","address":null,"region":"Souk Ahras","phone":null,"latitude":36.287444,"longitude":7.971267,"osm_id":"783038955","facility_type":"hospital"},{"name":"Hôpital","address":null,"region":"Chlef","phone":null,"latitude":36.159572,"longitude":0.965872,"osm_id":"783008895","facility_type":"hospital"},{"name":"EPH Belhi Abdelhamid","address":null,"region":"Mila","phone":null,"latitude":36.120055,"longitude":5.980344,"osm_id":"783010394","facility_type":"hospital"},{"name":"Polyclinique Tlilène","address":null,"region":"Adrar","phone":null,"latitude":27.883538,"longitude":-0.263456,"osm_id":"432995849","facility_type":"hospital"},{"name":"Dispensaire Slimani slimane","address":null,"region":"Médéa","phone":null,"latitude":35.449222,"longitude":2.894032,"osm_id":"486225138","facility_type":"hospital"},{"name":"Polyclinique","address":null,"region":"Mila","phone":null,"latitude":36.16362,"longitude":6.172946,"osm_id":"783007476","facility_type":"hospital"},{"name":"centre de santé","address":null,"region":"Chlef","phone":null,"latitude":36.155812,"longitude":1.307146,"osm_id":"782994211","facility_type":"hospital"},{"name":"Centre de Soin Illilten","address":null,"region":"Tizi Ouzou","phone":null,"latitude":36.512797,"longitude":4.420691,"osm_id":"782758647","facility_type":"hospital"},{"name":"Urgences","address":null,"region":"Tizi Ouzou","phone":null,"latitude":36.917155,"longitude":3.89479,"osm_id":"782759890","facility_type":"hospital"},{"name":"polyclinique Khouriba","address":null,"region":"Tlemcen","phone":null,"latitude":35.032945,"longitude":-1.768872,"osm_id":"88006847","facility_type":"hospital"},{"name":"Hôpital Arassa","address":null,"region":"Bordj Bou Arréridj","phone":null,"latitude":36.42454,"longitude":4.824137,"osm_id":"782742124","facility_type":"hospital"},{"name":"مستشفى الإدريسية","address":"مستشفى الإدريسية","region":"Djelfa","phone":null,"latitude":34.456565,"longitude":2.530557,"osm_id":"266330131","facility_type":"hospital"},{"name":"المؤسسات الجزائرية المصغرة","address":"المؤسسات الجزائرية المصغرة","region":"Laghouat","phone":null,"latitude":33.801215,"longitude":2.869096,"osm_id":"43844510","facility_type":"hospital"},{"name":"EHS Psychiatrique Mahfoud Boucebsi","address":null,"region":"Alger","phone":null,"latitude":36.765136,"longitude":2.953984,"osm_id":"246408116","facility_type":"hospital"},{"name":"Hôpital d'Aïn Taya","address":"مستشفى عين طاية","region":"Boumerdès","phone":null,"latitude":36.789503,"longitude":3.295508,"osm_id":"245174975","facility_type":"hospital"},{"name":"مستشفى طب العيون صداقة الجزائر كوبا","address":"مستشفى طب العيون صداقة الجزائر كوبا","region":"El Oued","phone":null,"latitude":33.385721,"longitude":6.875437,"osm_id":"454103312","facility_type":"hospital"},{"name":"Centre de santé","address":null,"region":"Bouira","phone":null,"latitude":36.375972,"longitude":3.882644,"osm_id":"550337582","facility_type":"hospital"},{"name":"مستشفى بودانس","address":"مستشفى بودانس","region":"Oran","phone":null,"latitude":35.705648,"longitude":-0.653964,"osm_id":"369151778","facility_type":"hospital"},{"name":"Hôpital Militaire Dr. Amir Mohamed Benaissa","address":"المستشفى العسكري الدكتور أمير محمد بن عيسى","region":"Oran","phone":null,"latitude":35.669518,"longitude":-0.667392,"osm_id":"154204921","facility_type":"hospital"},{"name":"Centre Hispitalier Hamouda Amer","address":null,"region":"Oum El Bouaghi","phone":null,"latitude":35.97419,"longitude":6.877739,"osm_id":"279273939","facility_type":"hospital"},{"name":"Etablissement public de santé de proximité","address":null,"region":"Bouira","phone":null,"latitude":36.381247,"longitude":3.900497,"osm_id":"551526310","facility_type":"hospital"},{"name":"Hopital","address":null,"region":"Constantine","phone":null,"latitude":36.233947,"longitude":6.945933,"osm_id":"291857346","facility_type":"hospital"},{"name":"Centre de soin Afir","address":"مركز رعاية أعفير","region":"Tizi Ouzou","phone":null,"latitude":36.809886,"longitude":4.169515,"osm_id":"782994058","facility_type":"hospital"},{"name":"EHP","address":null,"region":"M'Sila","phone":null,"latitude":35.504684,"longitude":5.263645,"osm_id":"317233089","facility_type":"hospital"},{"name":"Établissement — Oum El Bouaghi","address":null,"region":"Oum El Bouaghi","phone":null,"latitude":35.879544,"longitude":7.109101,"osm_id":"978851650","facility_type":"hospital"},{"name":"Polylinque Bali Mohamed","address":null,"region":"Alger","phone":null,"latitude":36.76158,"longitude":2.922951,"osm_id":"479279697","facility_type":"hospital"},{"name":"Hôpital Ziouchi Mohamed","address":"مستشفى زيوشي محمد","region":"Biskra","phone":null,"latitude":34.725508,"longitude":5.382128,"osm_id":"316923581","facility_type":"hospital"},{"name":"Hôpital de Tighennif","address":null,"region":"Mascara","phone":null,"latitude":35.422093,"longitude":0.321968,"osm_id":"313828001","facility_type":"hospital"},{"name":"Polyclinique des consultations spécialisées Boudghène","address":"مستشفى بودغن","region":"Tlemcen","phone":null,"latitude":34.87304,"longitude":-1.321211,"osm_id":"414758997","facility_type":"hospital"},{"name":"Hôpital","address":"مستشفى","region":"Boumerdès","phone":null,"latitude":36.757046,"longitude":3.480889,"osm_id":"294717372","facility_type":"hospital"},{"name":"Hôpital Militaire de Ain Naadja","address":"المستشفى العسكري عين النعجة","region":"Alger","phone":null,"latitude":36.719292,"longitude":3.063656,"osm_id":"246086623","facility_type":"hospital"},{"name":"Hôpital DU JOUR","address":null,"region":"Mila","phone":null,"latitude":36.449887,"longitude":6.262236,"osm_id":"233458031","facility_type":"hospital"},{"name":"Hôpital de Mila","address":null,"region":"Mila","phone":null,"latitude":36.443827,"longitude":6.26199,"osm_id":"233453467","facility_type":"hospital"},{"name":"المستشفى العسكري الجهوي الجامعي بتامنغست","address":null,"region":"Tamanrasset","phone":null,"latitude":22.774315,"longitude":5.523831,"osm_id":"1225353584","facility_type":"hospital"},{"name":"Clinique","address":null,"region":"Tizi Ouzou","phone":null,"latitude":36.74623,"longitude":3.898438,"osm_id":"944199676","facility_type":"hospital"},{"name":"E.P.H Bordj Menaiel","address":null,"region":"Boumerdès","phone":null,"latitude":36.744674,"longitude":3.72286,"osm_id":"242898759","facility_type":"hospital"},{"name":"Hôpital Ibn Sina","address":null,"region":"Adrar","phone":null,"latitude":27.870714,"longitude":-0.279824,"osm_id":"393042095","facility_type":"hospital"},{"name":"centre medical","address":null,"region":"Sétif","phone":null,"latitude":36.262253,"longitude":5.7161,"osm_id":"473620152","facility_type":"hospital"},{"name":"Kerroumi Mohammed","address":null,"region":"Béchar","phone":null,"latitude":31.590842,"longitude":-2.237981,"osm_id":"330434664","facility_type":"hospital"},{"name":"Hôpital Boudiaf","address":"مستشفى بوضياف","region":"Béchar","phone":null,"latitude":31.622065,"longitude":-2.204621,"osm_id":"273456230","facility_type":"hospital"},{"name":"clinique psychiatrique","address":"عيادة الطب النفسي","region":"Béchar","phone":null,"latitude":31.626375,"longitude":-2.206534,"osm_id":"422701223","facility_type":"hospital"},{"name":"قاعة علاج عين رويبح","address":null,"region":"Skikda","phone":null,"latitude":36.806851,"longitude":6.522565,"osm_id":"303027498","facility_type":"hospital"},{"name":"Clinique Ben Habib","address":"عيادة بن حبيب","region":"Tlemcen","phone":null,"latitude":34.88818,"longitude":-1.320797,"osm_id":"1101338545","facility_type":"hospital"},{"name":"عيادة المتعددة الخدمات المجاهد بن عبد الله يخلف","address":"عيادة المتعددة الخدمات المجاهد بن عبد الله يخلف","region":"Tlemcen","phone":null,"latitude":34.910239,"longitude":-1.318246,"osm_id":"1079264398","facility_type":"hospital"},{"name":"Sanatorium EPH Batna","address":null,"region":"Batna","phone":null,"latitude":35.556158,"longitude":6.18239,"osm_id":"534630496","facility_type":"hospital"},{"name":"Polyclinique 66 lgts","address":null,"region":"Alger","phone":null,"latitude":36.714796,"longitude":2.846216,"osm_id":"482709055","facility_type":"hospital"},{"name":"Clinique de chirurgie cardio-infantile","address":"عيادة جراحة القلب للأطفال","region":"Tipaza","phone":null,"latitude":36.637406,"longitude":2.685977,"osm_id":"172241238","facility_type":"hospital"},{"name":"Polyclinique Douera","address":null,"region":"Alger","phone":null,"latitude":36.668645,"longitude":2.939562,"osm_id":"783010148","facility_type":"hospital"},{"name":"Larbi tebssi","address":"العربي التبسي","region":"Alger","phone":null,"latitude":36.754428,"longitude":3.057456,"osm_id":"783091381","facility_type":"hospital"},{"name":"Hôpital hafid boudjema","address":null,"region":"Constantine","phone":null,"latitude":36.351683,"longitude":6.594184,"osm_id":"369297453","facility_type":"hospital"},{"name":"Dispensaire","address":null,"region":"Bouira","phone":null,"latitude":36.499088,"longitude":3.937535,"osm_id":"307015652","facility_type":"hospital"},{"name":"clinique de oued edhous","address":null,"region":"Bouira","phone":null,"latitude":36.368803,"longitude":3.900945,"osm_id":"260571351","facility_type":"hospital"},{"name":"Hôpital Akloul Ali","address":null,"region":"Bordj Bou Arréridj","phone":null,"latitude":36.458994,"longitude":4.52544,"osm_id":"183352585","facility_type":"hospital"},{"name":"UMC (urgences médico-chirurgicale)","address":null,"region":"Djelfa","phone":null,"latitude":34.652583,"longitude":3.267919,"osm_id":"256715571","facility_type":"hospital"},{"name":"Sanatorium Lalla Setti","address":null,"region":"Tlemcen","phone":null,"latitude":34.863405,"longitude":-1.303542,"osm_id":"480407359","facility_type":"hospital"},{"name":"مصحة بلعرج","address":"مصحة بلعرج","region":"Alger","phone":null,"latitude":36.742673,"longitude":3.064916,"osm_id":"782994504","facility_type":"hospital"},{"name":"Polyclinique de Sebbala","address":null,"region":"Alger","phone":null,"latitude":36.714953,"longitude":3.013001,"osm_id":"554235723","facility_type":"hospital"},{"name":"Dispensaire","address":"مستوصف","region":"Médéa","phone":null,"latitude":36.270882,"longitude":2.77111,"osm_id":"190375109","facility_type":"hospital"},{"name":"Polyclinique","address":null,"region":"Bouira","phone":null,"latitude":36.295626,"longitude":3.669417,"osm_id":"564595564","facility_type":"hospital"},{"name":"Hopital EPH Said Omar","address":null,"region":"Médéa","phone":null,"latitude":36.22345,"longitude":3.298821,"osm_id":"220400576","facility_type":"hospital"},{"name":"Centres de Santé","address":null,"region":"Sétif","phone":null,"latitude":36.200146,"longitude":5.429393,"osm_id":"185318272","facility_type":"hospital"},{"name":"Hôpital de Aïn Bessam","address":null,"region":"Bouira","phone":null,"latitude":36.296547,"longitude":3.675696,"osm_id":"469201625","facility_type":"hospital"},{"name":"Nouveau Centre de santé (non encore achevé)","address":null,"region":"Bouira","phone":null,"latitude":36.25753,"longitude":4.037196,"osm_id":"783051776","facility_type":"hospital"},{"name":"Centre médical de la police","address":null,"region":"Bouira","phone":null,"latitude":36.377072,"longitude":3.887493,"osm_id":"550314465","facility_type":"hospital"},{"name":"EPSP","address":null,"region":"Aïn Defla","phone":null,"latitude":36.20064,"longitude":2.078515,"osm_id":"203946738","facility_type":"hospital"},{"name":"Polyclinique Les Sources","address":null,"region":"Alger","phone":null,"latitude":36.733778,"longitude":3.058097,"osm_id":"253995046","facility_type":"hospital"},{"name":"salle de soins","address":null,"region":"Tipaza","phone":null,"latitude":36.590099,"longitude":2.545729,"osm_id":"312762250","facility_type":"hospital"},{"name":"مستوصف مرسى بن مهيدي","address":"مستوصف مرسى بن مهيدي","region":"Tlemcen","phone":null,"latitude":35.081427,"longitude":-2.202116,"osm_id":"87265858","facility_type":"hospital"},{"name":"Hôpital Psychiatrique Fernan Hanafi","address":null,"region":"Tizi Ouzou","phone":null,"latitude":36.698872,"longitude":4.114453,"osm_id":"287904844","facility_type":"hospital"},{"name":"Polyclinique Dar el bida","address":null,"region":"Alger","phone":null,"latitude":36.720819,"longitude":3.213277,"osm_id":"226907914","facility_type":"hospital"},{"name":"مستشفى","address":"مستشفى","region":"Naâma","phone":null,"latitude":33.276645,"longitude":-0.305994,"osm_id":"805346223","facility_type":"hospital"},{"name":"Hôpital psychiatrique","address":null,"region":"Adrar","phone":null,"latitude":27.875952,"longitude":-0.307431,"osm_id":"432370657","facility_type":"hospital"},{"name":"Hôpital Chorfa","address":"مستشفى الشرفة","region":"Chlef","phone":null,"latitude":36.145783,"longitude":1.313313,"osm_id":"108803746","facility_type":"hospital"},{"name":"Polyclinique de Mekla","address":null,"region":"Tizi Ouzou","phone":null,"latitude":36.685588,"longitude":4.267927,"osm_id":"417102329","facility_type":"hospital"},{"name":"مركز تحقين الدم","address":"مركز تحقين الدم","region":"Tizi Ouzou","phone":null,"latitude":36.7127,"longitude":4.0382,"osm_id":"783902826","facility_type":"hospital"},{"name":"Salle de Soin","address":null,"region":"Alger","phone":null,"latitude":36.717015,"longitude":2.916591,"osm_id":"483129334","facility_type":"hospital"},{"name":"Hôpital de Maghnia","address":null,"region":"Tlemcen","phone":null,"latitude":34.839001,"longitude":-1.734689,"osm_id":"305687419","facility_type":"hospital"},{"name":"مستشفى","address":"مستشفى","region":"Timimoun","phone":null,"latitude":29.255547,"longitude":0.233142,"osm_id":"320728587","facility_type":"hospital"},{"name":"مستشفى عسكري","address":null,"region":"Ouargla","phone":null,"latitude":31.897275,"longitude":5.249539,"osm_id":"1028150308","facility_type":"hospital"},{"name":"عيادة متعددة الخدمات","address":"عيادة متعددة الخدمات","region":"Bordj Badji Mokhtar","phone":null,"latitude":21.329372,"longitude":0.954203,"osm_id":"321318512","facility_type":"hospital"},{"name":"Hopital Zighoud Youcef مستشفى زيغود يوسف","address":"مستشفى زيغود يوسف","region":"Chlef","phone":null,"latitude":36.5032,"longitude":1.293961,"osm_id":"232227750","facility_type":"hospital"},{"name":"مستشفى ابن زهر","address":"مستشفى ابن زهر","region":"Guelma","phone":null,"latitude":36.462996,"longitude":7.428113,"osm_id":"460366533","facility_type":"hospital"},{"name":"EPSP","address":null,"region":"Sétif","phone":null,"latitude":36.152793,"longitude":5.684807,"osm_id":"181330963","facility_type":"hospital"},{"name":"Maternité","address":null,"region":"Batna","phone":null,"latitude":35.255388,"longitude":6.356034,"osm_id":"783848922","facility_type":"hospital"},{"name":"Hôpital","address":null,"region":"Sétif","phone":null,"latitude":36.464354,"longitude":5.646109,"osm_id":"295114669","facility_type":"hospital"},{"name":"مستشفى زوي","address":"مستشفى زوي","region":"Khenchela","phone":null,"latitude":35.290469,"longitude":7.355689,"osm_id":"467494528","facility_type":"hospital"},{"name":"Hôpital Sidi Belloua Sanatorium","address":null,"region":"Tizi Ouzou","phone":null,"latitude":36.726811,"longitude":4.065381,"osm_id":"356961309","facility_type":"hospital"},{"name":"مستشفى ساقية سيدي يوسف","address":"مستشفى ساقية سيدي يوسف","region":"Souk Ahras","phone":null,"latitude":36.225055,"longitude":8.358386,"osm_id":"680776125","facility_type":"hospital"},{"name":"EPSP Oued Tlelat","address":null,"region":"Oran","phone":null,"latitude":35.55379,"longitude":-0.445452,"osm_id":"308633282","facility_type":"hospital"},{"name":"مستشفى الامراض العقلية دريد الحسين (ب)","address":"مستشفى الامراض العقلية دريد الحسين (ب)","region":"Alger","phone":null,"latitude":36.738485,"longitude":3.086376,"osm_id":"271903487","facility_type":"hospital"},{"name":"L'Hôpital de Saïdia مستشفى السعيدية","address":"مستشفى السعيدية","region":"Tlemcen","phone":null,"latitude":35.088044,"longitude":-2.240203,"osm_id":"421536627","facility_type":"hospital"},{"name":"Centre Mehdi Ibn Toumart مركز المهدي ابن تومرت","address":"مركز المهدي ابن تومرت","region":"Tlemcen","phone":null,"latitude":34.791363,"longitude":-1.902229,"osm_id":"324065524","facility_type":"hospital"},{"name":"CHU Benflis Touhami","address":null,"region":"Batna","phone":null,"latitude":35.532364,"longitude":6.188768,"osm_id":"193219126","facility_type":"hospital"},{"name":"Établissement — سفيزف","address":null,"region":"Sidi Bel Abbès","phone":null,"latitude":35.232783,"longitude":-0.24513,"osm_id":"314022324","facility_type":"hospital"},{"name":"مستوصف حي 500 مسكن","address":"مستوصف حي 500 مسكن","region":"Oran","phone":null,"latitude":35.557603,"longitude":-0.444468,"osm_id":"439805387","facility_type":"hospital"},{"name":"Hôpital de Boufarik","address":"مستشفى بوفاريك","region":"Blida","phone":null,"latitude":36.576881,"longitude":2.909222,"osm_id":"222155068","facility_type":"hospital"},{"name":"Hôpital Bouzidi Lakhdar","address":"مستشفى بوزيدي لخضر","region":"Bordj Bou Arréridj","phone":null,"latitude":36.062776,"longitude":4.770657,"osm_id":"229172459","facility_type":"hospital"},{"name":"Hôpital d'Oued Fodda مستشفى وادي الفضة","address":"مستشفى وادي الفضة","region":"Chlef","phone":null,"latitude":36.1828,"longitude":1.522071,"osm_id":"310508440","facility_type":"hospital"},{"name":"Établissement — الأبيض سيدي الشيخ","address":null,"region":"Naâma","phone":null,"latitude":32.895289,"longitude":0.548392,"osm_id":"240979013","facility_type":"hospital"},{"name":"Hôpital Khelil Amrane","address":"مستشفى خليل عمران","region":"Béjaïa","phone":null,"latitude":36.754298,"longitude":5.049966,"osm_id":"156237500","facility_type":"hospital"},{"name":"Hôpital Tidjani Hadam","address":"مستشفى التيجاني هدام","region":"Tébessa","phone":null,"latitude":34.757118,"longitude":8.050768,"osm_id":"209923812","facility_type":"hospital"},{"name":"Établissement — Birine","address":"مستشفى 60 سرير","region":"Médéa","phone":null,"latitude":35.620954,"longitude":3.212154,"osm_id":"455303040","facility_type":"hospital"},{"name":"EPH de Oued Zenati","address":null,"region":"Guelma","phone":null,"latitude":36.314751,"longitude":7.161827,"osm_id":"454454687","facility_type":"hospital"},{"name":"EPH Nedroma","address":null,"region":"Tlemcen","phone":null,"latitude":35.01788,"longitude":-1.759637,"osm_id":"253186683","facility_type":"hospital"},{"name":"Polyclinique Rais","address":"مستوصف رايس","region":"Alger","phone":null,"latitude":36.611395,"longitude":3.126105,"osm_id":"475102376","facility_type":"hospital"},{"name":"Polyclinique Yaghmoracene","address":null,"region":"Oran","phone":null,"latitude":35.673651,"longitude":-0.66016,"osm_id":"441587463","facility_type":"hospital"},{"name":"مستشفي العمومي بشير بلال","address":"مستشفي العمومي بشير بلال","region":"El Oued","phone":null,"latitude":33.311108,"longitude":6.899817,"osm_id":"458503590","facility_type":"hospital"},{"name":"عيادة خمدات","address":null,"region":"Ouargla","phone":null,"latitude":31.957844,"longitude":5.311302,"osm_id":"374299394","facility_type":"hospital"},{"name":"مستشفى بليليطة","address":"مستشفى بليليطة","region":"Sétif","phone":null,"latitude":35.852419,"longitude":5.282358,"osm_id":"783862893","facility_type":"hospital"},{"name":"Dispensaire Hamma Bouziane","address":null,"region":"Constantine","phone":null,"latitude":36.421618,"longitude":6.599132,"osm_id":"456778611","facility_type":"hospital"},{"name":"Clinique Abu Al-Quassim","address":"Clinique Abu Al-Quassim ( Hammani )","region":"Skikda","phone":null,"latitude":36.8698,"longitude":6.914404,"osm_id":"284336124","facility_type":"hospital"},{"name":"مستشفى زلفانة","address":"مستشفى زلفانة","region":"Ghardaïa","phone":null,"latitude":32.401461,"longitude":4.225827,"osm_id":"343719379","facility_type":"hospital"},{"name":"مصلحة الامومة الريفية","address":"مصلحة الامومة الريفية","region":"Timimoun","phone":null,"latitude":29.708324,"longitude":0.720834,"osm_id":"782782263","facility_type":"hospital"},{"name":"Hôpital d'El Aouinet","address":"مستثفى العوينات","region":"Souk Ahras","phone":null,"latitude":35.860891,"longitude":7.889981,"osm_id":"380652284","facility_type":"hospital"},{"name":"Hôpital d'El Affroun","address":null,"region":"Blida","phone":null,"latitude":36.471572,"longitude":2.628453,"osm_id":"194423218","facility_type":"hospital"},{"name":"مستشفى أحمد قواسمي","address":"مستشفى أحمد قواسمي","region":"Annaba","phone":null,"latitude":37.066503,"longitude":7.377963,"osm_id":"422251307","facility_type":"hospital"},{"name":"مستشفى الأمومة والطفولة","address":null,"region":"Laghouat","phone":null,"latitude":34.112877,"longitude":2.078784,"osm_id":"1219001411","facility_type":"hospital"},{"name":"مختبر النظافة","address":"مختبر النظافة","region":"Tébessa","phone":null,"latitude":35.39435,"longitude":8.099572,"osm_id":"209416160","facility_type":"hospital"},{"name":"Ophtalmologie","address":"Ophtalmologie كوبا","region":"Béchar","phone":null,"latitude":31.636172,"longitude":-2.221924,"osm_id":"272971324","facility_type":"hospital"},{"name":"مستشفى الدكتور بن زرجب","address":"مستشفى الدكتور بن زرجب","region":"Aïn Témouchent","phone":null,"latitude":35.288112,"longitude":-1.129735,"osm_id":"193730675","facility_type":"hospital"},{"name":"Salle de soins Mazafran","address":null,"region":"Alger","phone":null,"latitude":36.699267,"longitude":2.835177,"osm_id":"482939911","facility_type":"hospital"},{"name":"مستشفى المختلط سي الحواس","address":"مستشفى المختلط سي الحواس","region":"Tindouf","phone":null,"latitude":27.674946,"longitude":-8.140084,"osm_id":"321065896","facility_type":"hospital"},{"name":"Hôpital de Ghardaïa","address":"مستشفى غرداية","region":"Ghardaïa","phone":null,"latitude":32.489688,"longitude":3.695227,"osm_id":"250471296","facility_type":"hospital"},{"name":"HOPILA BENKHONATHA DIOUAHI","address":null,"region":"M'Sila","phone":null,"latitude":35.039169,"longitude":4.573426,"osm_id":"709621699","facility_type":"hospital"},{"name":"Hôpital Yessaad Khaled","address":"مستشفى يسعد خالد","region":"Mascara","phone":null,"latitude":35.398532,"longitude":0.14027,"osm_id":"374990310","facility_type":"hospital"},{"name":"Ṣṣbiṭaṛ Meɣnem Lunes","address":"مستشفى مغنم لونس","region":"Tizi Ouzou","phone":null,"latitude":36.759683,"longitude":4.389134,"osm_id":"726854216","facility_type":"hospital"},{"name":"Clinique militaire les Oliviers","address":null,"region":"Alger","phone":null,"latitude":36.726094,"longitude":3.05891,"osm_id":"186937625","facility_type":"hospital"},{"name":"Policlinique","address":null,"region":"Mila","phone":null,"latitude":36.453379,"longitude":6.049815,"osm_id":"1215581586","facility_type":"hospital"},{"name":"Établissement — المؤسسة العمومية الإستشفائية سيدي عيسى","address":"المؤسسة العمومية الإستشفائية سيدي عيسى","region":"Bouira","phone":null,"latitude":35.892101,"longitude":3.767015,"osm_id":"314737198","facility_type":"hospital"},{"name":"polyclénique mekhadma","address":null,"region":"Biskra","phone":null,"latitude":34.645549,"longitude":5.471124,"osm_id":"641911824","facility_type":"hospital"},{"name":"Hôpital de Meftah","address":"مستشفى مفتاح","region":"Alger","phone":null,"latitude":36.59566,"longitude":3.21902,"osm_id":"373345377","facility_type":"hospital"},{"name":"Hôpital de Zéralda","address":null,"region":"Alger","phone":null,"latitude":36.700486,"longitude":2.843725,"osm_id":"245965237","facility_type":"hospital"},{"name":"EPSP Zéralda","address":null,"region":"Alger","phone":null,"latitude":36.709094,"longitude":2.844132,"osm_id":"482709087","facility_type":"hospital"},{"name":"Clinique d'Hémodialyse","address":null,"region":"Constantine","phone":null,"latitude":36.038529,"longitude":6.563682,"osm_id":"276278499","facility_type":"hospital"},{"name":"Maternité","address":null,"region":"Sétif","phone":null,"latitude":35.964425,"longitude":5.434217,"osm_id":"440212137","facility_type":"hospital"},{"name":"Centre d'imagerie médicale mahmoudi","address":null,"region":"Tizi Ouzou","phone":null,"latitude":36.700894,"longitude":4.039335,"osm_id":"783085450","facility_type":"hospital"},{"name":"Hôpital Chahids Mahmoudi","address":"مستشفى السهيد محمودي","region":"Tizi Ouzou","phone":null,"latitude":36.701128,"longitude":4.054888,"osm_id":"370191750","facility_type":"hospital"},{"name":"Centre médical","address":null,"region":"Aïn Témouchent","phone":null,"latitude":35.300688,"longitude":-1.152651,"osm_id":"550252471","facility_type":"hospital"},{"name":"Dispensaire","address":null,"region":"Tlemcen","phone":null,"latitude":34.924577,"longitude":-0.955812,"osm_id":"437870336","facility_type":"hospital"},{"name":"المؤسسة العمومية للصحة الجوارية","address":"المؤسسة العمومية للصحة الجوارية","region":"In Guezzam","phone":null,"latitude":19.573419,"longitude":5.770474,"osm_id":"783883233","facility_type":"hospital"},{"name":"Centre de soins Mourad Rachid","address":null,"region":"Alger","phone":null,"latitude":36.725648,"longitude":3.025293,"osm_id":"274667738","facility_type":"hospital"},{"name":"Hôpital Mohamed Boudiaf","address":null,"region":"Médéa","phone":null,"latitude":36.259728,"longitude":2.757346,"osm_id":"190374005","facility_type":"hospital"},{"name":"Hôpital Mohamed Boudiaf","address":null,"region":"Ouargla","phone":null,"latitude":31.962204,"longitude":5.332189,"osm_id":"303499771","facility_type":"hospital"},{"name":"Établissement — Besbes","address":null,"region":"Annaba","phone":null,"latitude":36.704373,"longitude":7.83273,"osm_id":"341025149","facility_type":"hospital"},{"name":"Établissement — مستشفى الشرطة","address":"مستشفى الشرطة","region":"Batna","phone":null,"latitude":35.540559,"longitude":6.190379,"osm_id":"783038602","facility_type":"hospital"},{"name":"Hôpital Hassiba Ben Bouali","address":"مستشفى حسيبة بن بوعلي","region":"Blida","phone":null,"latitude":36.485643,"longitude":2.831998,"osm_id":"275301182","facility_type":"hospital"},{"name":"Hôpital de Hadjout","address":"مستشفى حجوط","region":"Tipaza","phone":null,"latitude":36.509968,"longitude":2.41217,"osm_id":"224810445","facility_type":"hospital"},{"name":"Hopital Douira","address":null,"region":"Alger","phone":null,"latitude":36.66725,"longitude":2.940033,"osm_id":"40072354","facility_type":"hospital"},{"name":"Dr LOUAHCHI Gynecologue","address":null,"region":"Tizi Ouzou","phone":null,"latitude":36.91762,"longitude":3.894188,"osm_id":"783900063","facility_type":"hospital"},{"name":"Adhkhchim","address":null,"region":"Bouira","phone":null,"latitude":36.50371,"longitude":3.917653,"osm_id":"783895009","facility_type":"hospital"},{"name":"Hôpital bouteldja","address":null,"region":"El Tarf","phone":null,"latitude":36.788813,"longitude":8.195176,"osm_id":"783868205","facility_type":"hospital"},{"name":"مستشفى العجال أبو الأطرش","address":"مستشفى العجال أبو الأطرش","region":"Mostaganem","phone":null,"latitude":36.000788,"longitude":0.288246,"osm_id":"314175825","facility_type":"hospital"},{"name":"Établissement — سيدي خالد","address":null,"region":"Ouled Djellal","phone":null,"latitude":34.389529,"longitude":4.991195,"osm_id":"315557802","facility_type":"hospital"},{"name":"Clinique des Orchidées","address":null,"region":"Alger","phone":null,"latitude":36.736065,"longitude":3.03298,"osm_id":"301992497","facility_type":"hospital"},{"name":"Polyclinique BOUDA EL-Mansour EPSP ADRAR","address":"العيادة متعددة الخدمات بودة المنصور","region":"Adrar","phone":null,"latitude":27.955595,"longitude":-0.424635,"osm_id":"433003755","facility_type":"hospital"},{"name":"Hôpital psychiatrique","address":null,"region":"Sidi Bel Abbès","phone":null,"latitude":35.221482,"longitude":-0.631541,"osm_id":"241868667","facility_type":"hospital"},{"name":"مجمع عيادات - أمومة","address":"مجمع عيادات - أمومة","region":"Sidi Bel Abbès","phone":null,"latitude":35.236128,"longitude":-0.242112,"osm_id":"246160095","facility_type":"hospital"},{"name":"urgence médicale","address":null,"region":"Tlemcen","phone":null,"latitude":35.078544,"longitude":-1.223115,"osm_id":"783881399","facility_type":"hospital"},{"name":"Polyclinque d'Assa","address":null,"region":"Tlemcen","phone":null,"latitude":35.041382,"longitude":-1.783443,"osm_id":"782736531","facility_type":"hospital"},{"name":"Clinique d'hémodialyse","address":null,"region":"Sidi Bel Abbès","phone":null,"latitude":35.184442,"longitude":-0.642883,"osm_id":"782760619","facility_type":"hospital"},{"name":"CHU Docteur Hassani Abdelkader","address":null,"region":"Sidi Bel Abbès","phone":null,"latitude":35.18288,"longitude":-0.646869,"osm_id":"176580477","facility_type":"hospital"},{"name":"Maternité Benatou Mira","address":"مستشفى الولادة","region":"Sidi Bel Abbès","phone":null,"latitude":35.193322,"longitude":-0.619162,"osm_id":"219028752","facility_type":"hospital"},{"name":"Polyclinique Les Planteurs I","address":null,"region":"Oran","phone":null,"latitude":35.701047,"longitude":-0.661081,"osm_id":"856320349","facility_type":"hospital"},{"name":"المؤسسة الاستشفائية للأمن الوطني","address":"المؤسسة الاستشفائية للأمن الوطني","region":"Sidi Bel Abbès","phone":null,"latitude":35.188836,"longitude":-0.641973,"osm_id":"783902299","facility_type":"hospital"},{"name":"مركز الصحة","address":"مركز الصحة","region":"Sidi Bel Abbès","phone":null,"latitude":35.193906,"longitude":-0.643957,"osm_id":"219035135","facility_type":"hospital"},{"name":"Polyclinique sidi chaibq","address":null,"region":"Sidi Bel Abbès","phone":null,"latitude":34.592899,"longitude":-0.551014,"osm_id":"783841103","facility_type":"hospital"},{"name":"Ancien Polyclinique","address":"مستوصف القديم","region":"Oran","phone":null,"latitude":35.786612,"longitude":-0.424684,"osm_id":"946849025","facility_type":"hospital"},{"name":"مستشفى سليمان عميرات","address":"مستشفى سليمان عميرات","region":"Touggourt","phone":null,"latitude":33.100401,"longitude":6.061383,"osm_id":"321928730","facility_type":"hospital"},{"name":"Hôpital pour enfants cardiaques","address":null,"region":"Tizi Ouzou","phone":null,"latitude":36.727928,"longitude":3.96901,"osm_id":"344335938","facility_type":"hospital"},{"name":"مستشفى لبدوات","address":"مستشفى لبدوات","region":"Touggourt","phone":null,"latitude":33.111361,"longitude":6.077281,"osm_id":"463053220","facility_type":"hospital"},{"name":"عيادة","address":"عيادة","region":"Ouargla","phone":null,"latitude":31.977627,"longitude":5.419298,"osm_id":"439746215","facility_type":"hospital"},{"name":"Hôpital ophtalmologique amitié Algérie-Cuba Ouargla","address":null,"region":"Ouargla","phone":null,"latitude":31.935595,"longitude":5.303426,"osm_id":"304632975","facility_type":"hospital"},{"name":"Centre De Santé Aïn El Hadjar","address":null,"region":"Bouira","phone":null,"latitude":36.340856,"longitude":3.81128,"osm_id":"565137244","facility_type":"hospital"},{"name":"مستشفى حاسي مسعود","address":"مستشفى حاسي مسعود","region":"Ouargla","phone":null,"latitude":31.690269,"longitude":6.064211,"osm_id":"783029547","facility_type":"hospital"},{"name":"C.R.M.T ASL","address":null,"region":"Illizi","phone":null,"latitude":28.039501,"longitude":9.573789,"osm_id":"783056585","facility_type":"hospital"},{"name":"Hopital Wantimidhi","address":null,"region":"Illizi","phone":null,"latitude":26.497763,"longitude":8.473419,"osm_id":"313561496","facility_type":"hospital"},{"name":"المركز الصحي - الفيوت","address":"المركز الصحي - الفيوت","region":"Djanet","phone":null,"latitude":24.950898,"longitude":10.081855,"osm_id":"792052314","facility_type":"hospital"},{"name":"Hôpital psychiatrique","address":"مستشفى الأمراض العقلية","region":"Mostaganem","phone":null,"latitude":35.944535,"longitude":0.09904,"osm_id":"314979467","facility_type":"hospital"},{"name":"Hoplital Lakhdaria","address":null,"region":"Boumerdès","phone":null,"latitude":36.567119,"longitude":3.596368,"osm_id":"560399389","facility_type":"hospital"},{"name":"Hospitalité","address":"A.M.T https://goo.gl/zZpPBP","region":"Djelfa","phone":null,"latitude":34.892711,"longitude":2.307775,"osm_id":"429392313","facility_type":"clinic"},{"name":"EPSP Drid Hocine","address":"مستشفى الامراض العقلية دريد الحسين( ا)","region":"Alger","phone":null,"latitude":36.738578,"longitude":3.084707,"osm_id":"231883341","facility_type":"hospital"},{"name":"Centre Médical","address":null,"region":"Médéa","phone":null,"latitude":35.824513,"longitude":2.451916,"osm_id":"452785489","facility_type":"hospital"},{"name":"Hôpital privé","address":null,"region":"Tlemcen","phone":null,"latitude":35.063135,"longitude":-1.427049,"osm_id":"186941040","facility_type":"hospital"},{"name":"Centre Anti Cancer","address":null,"region":"Batna","phone":null,"latitude":35.52444,"longitude":6.195938,"osm_id":"193228566","facility_type":"hospital"},{"name":"Hôpital de Ras El Aioun","address":null,"region":"Batna","phone":null,"latitude":35.677962,"longitude":5.649572,"osm_id":"462851014","facility_type":"hospital"},{"name":"Hôpital Frantz Fanon","address":null,"region":"Annaba","phone":null,"latitude":36.903768,"longitude":7.766222,"osm_id":"377885024","facility_type":"hospital"},{"name":"Hôpital Dorban Annaba","address":"مستشفى ضربان - عنابة","region":"Annaba","phone":null,"latitude":36.909217,"longitude":7.729805,"osm_id":"427630404","facility_type":"hospital"},{"name":"Hôpital de Medjana","address":"مستشفى مجانة","region":"Bordj Bou Arréridj","phone":null,"latitude":36.130467,"longitude":4.666721,"osm_id":"377967631","facility_type":"hospital"},{"name":"Établissement de santé public de proximité","address":"المؤسسة العمومية للصحة الجوارية","region":"Bouira","phone":null,"latitude":35.883963,"longitude":3.7841,"osm_id":"317784267","facility_type":"hospital"},{"name":"Établissement — المؤسسة العمومية للصحة الجوارية غزال عمر","address":"المؤسسة العمومية للصحة الجوارية غزال عمر","region":"Djelfa","phone":null,"latitude":35.442088,"longitude":2.891792,"osm_id":"577155480","facility_type":"hospital"},{"name":"Hôpital Rachid Belhocine","address":"مستشفى رشيد بلحسين","region":"Béjaïa","phone":null,"latitude":36.61439,"longitude":4.698989,"osm_id":"242332921","facility_type":"hospital"},{"name":"Hopital Dr. Benzardjeb Benaouda","address":null,"region":"Tlemcen","phone":null,"latitude":34.644252,"longitude":-1.323926,"osm_id":"457242757","facility_type":"hospital"},{"name":"Hôpital de Foughala","address":null,"region":"Biskra","phone":null,"latitude":34.729589,"longitude":5.324014,"osm_id":"574129320","facility_type":"hospital"},{"name":"Service d'épidémiologie et de médecine préventive","address":"مصلحة علم الاوبئة والطب الوقائي","region":"M'Sila","phone":null,"latitude":35.212098,"longitude":4.178618,"osm_id":"378653724","facility_type":"hospital"},{"name":"Hôpital psychiatrique","address":null,"region":"Tipaza","phone":null,"latitude":36.571036,"longitude":2.387668,"osm_id":"448576403","facility_type":"hospital"},{"name":"Hôpital Hichem Abdelkrim","address":null,"region":"Tiaret","phone":null,"latitude":34.848891,"longitude":1.546542,"osm_id":"312023533","facility_type":"hospital"},{"name":"EHS Mother and Child Hospital","address":"مؤسسة حماية الطفولة و الأمومة","region":"Djelfa","phone":null,"latitude":34.667317,"longitude":3.248737,"osm_id":"468688132","facility_type":"hospital"},{"name":"HMRB 3°RM","address":null,"region":"Béchar","phone":null,"latitude":31.62106,"longitude":-2.217684,"osm_id":"272971869","facility_type":"hospital"},{"name":"Hôpital de Kharouba","address":"مستشفى خروبة","region":"Mostaganem","phone":null,"latitude":35.962318,"longitude":0.103882,"osm_id":"561771007","facility_type":"hospital"},{"name":"Hôpital Ibn Rochd","address":"مستشفى ابن رشد","region":"Souk Ahras","phone":null,"latitude":36.262641,"longitude":7.952063,"osm_id":"386851354","facility_type":"hospital"},{"name":"مستشفى يوسف يعلاوي","address":"مستشفى يوسف يعلاوي","region":"Sétif","phone":null,"latitude":35.807747,"longitude":5.506236,"osm_id":"315087053","facility_type":"hospital"},{"name":"EPH Frères Chenafa","address":"مستشفى الإخوة شنافة","region":"Naâma","phone":null,"latitude":33.527364,"longitude":-0.279856,"osm_id":"613879138","facility_type":"hospital"},{"name":"مستشفى ميموني الطاهر","address":null,"region":"Tiaret","phone":null,"latitude":35.185476,"longitude":1.4901,"osm_id":"377724072","facility_type":"hospital"},{"name":"مستشفى أوسرد","address":"مستشفى أوسرد","region":"Tindouf","phone":null,"latitude":27.611839,"longitude":-7.874238,"osm_id":"420902110","facility_type":"hospital"},{"name":"Hôpital de Gériatrie de Zéralda","address":null,"region":"Alger","phone":null,"latitude":36.697928,"longitude":2.844752,"osm_id":"460188064","facility_type":"hospital"},{"name":"Établissement — تبسة","address":null,"region":"Tébessa","phone":null,"latitude":35.403093,"longitude":8.120152,"osm_id":"668354883","facility_type":"hospital"},{"name":"مستشفى","address":null,"region":"Chlef","phone":null,"latitude":35.784324,"longitude":1.132139,"osm_id":"313623626","facility_type":"hospital"},{"name":"Hôpital Militaire Universitaire Spécialisé","address":null,"region":"Alger","phone":null,"latitude":36.733081,"longitude":2.888866,"osm_id":"458090428","facility_type":"hospital"},{"name":"Hôpital de Ghriss","address":"مستشفى غريس","region":"Mascara","phone":null,"latitude":35.247434,"longitude":0.152376,"osm_id":"313879842","facility_type":"hospital"},{"name":"EPH Ahmed MEDEGHRI","address":"Hôpital Ahmed Medeghri","region":"Saïda","phone":null,"latitude":34.829334,"longitude":0.159926,"osm_id":"315344050","facility_type":"hospital"},{"name":"Maternité","address":null,"region":"Alger","phone":null,"latitude":36.666075,"longitude":2.940494,"osm_id":"435217513","facility_type":"hospital"},{"name":"Centre de soins Bachir Laadjouz;Dispensaire Maison du diabétique","address":null,"region":"Alger","phone":null,"latitude":36.74703,"longitude":3.078775,"osm_id":"271912485","facility_type":"hospital"},{"name":"Laboratoire médical Hussein Dey","address":null,"region":"Alger","phone":null,"latitude":36.73436,"longitude":3.104181,"osm_id":"252074570","facility_type":"hospital"},{"name":"Hopital Maternité","address":"مستشفى الأمومة","region":"Laghouat","phone":null,"latitude":33.803442,"longitude":2.87314,"osm_id":"43844515","facility_type":"hospital"},{"name":"مركز العتيق للاشعة","address":"FB: Algerie Mapper Team (Adlen) — مركز العتيق للاشعة","region":"Souk Ahras","phone":null,"latitude":36.28209,"longitude":7.958529,"osm_id":"1206265137","facility_type":"hospital"},{"name":"Cabinet médical Hamadache.H","address":null,"region":"Sétif","phone":null,"latitude":36.190965,"longitude":5.418307,"osm_id":"442420630","facility_type":"hospital"},{"name":"EPH Taibet","address":"المؤسسة الاستشفائية العمومية الطيبات","region":"Touggourt","phone":null,"latitude":33.083963,"longitude":6.398802,"osm_id":"410277093","facility_type":"hospital"},{"name":"Hôpital Dahaoua Dahou","address":null,"region":"Mascara","phone":null,"latitude":35.592232,"longitude":0.081501,"osm_id":"276526415","facility_type":"hospital"},{"name":"Hôpital de Beni Saf","address":null,"region":"Aïn Témouchent","phone":null,"latitude":35.305263,"longitude":-1.383835,"osm_id":"235460596","facility_type":"hospital"},{"name":"مستشفى الأمراض العقلية الجديد","address":"مستشفى الأمراض العقلية الجديد","region":"Batna","phone":null,"latitude":35.626962,"longitude":6.382688,"osm_id":"463112913","facility_type":"hospital"},{"name":"ارض مشروع مسجد+مدرسة قرآنية","address":null,"region":"El M'Ghair","phone":null,"latitude":33.944527,"longitude":5.91591,"osm_id":"907058758","facility_type":"hospital"},{"name":"مدرسة ابتدائية","address":null,"region":"El M'Ghair","phone":null,"latitude":33.944551,"longitude":5.914399,"osm_id":"907058759","facility_type":"hospital"},{"name":"Dr BEKHTARI  pédiatre","address":"FB: Algerie Mapper Team : (Superadlen)","region":"Alger","phone":null,"latitude":36.569639,"longitude":2.915921,"osm_id":"1171866642","facility_type":"clinic"},{"name":"Centre Médical Bachdjarah","address":null,"region":"Alger","phone":null,"latitude":36.722303,"longitude":3.118991,"osm_id":"251256118","facility_type":"hospital"},{"name":"polyclinique 19 mars ouest","address":null,"region":"El Oued","phone":null,"latitude":33.339113,"longitude":6.864362,"osm_id":"902672676","facility_type":"hospital"},{"name":"المؤسسة العمومية للصحة الجوارية خراطة","address":null,"region":"Béjaïa","phone":null,"latitude":36.491845,"longitude":5.277069,"osm_id":"1061365160","facility_type":"hospital"},{"name":"Établissement Hospitalier Spécialisé en Rééducation Fonctionnelle à Ras Elma","address":"المؤسسة الإستشفائية المختصة في التأهيل و التكييف الوظيفي","region":"Sétif","phone":null,"latitude":36.119247,"longitude":5.535673,"osm_id":"441945718","facility_type":"hospital"},{"name":"Ancien Hopital","address":null,"region":"Bordj Bou Arréridj","phone":null,"latitude":36.465165,"longitude":4.531936,"osm_id":"183374544","facility_type":"hospital"},{"name":"Hôpital Salim Zemirli","address":"مستشفى سليم زميرلي","region":"Alger","phone":null,"latitude":36.703346,"longitude":3.123774,"osm_id":"30350387","facility_type":"hospital"},{"name":"Sanatorium Tessala","address":null,"region":"Sidi Bel Abbès","phone":null,"latitude":35.274634,"longitude":-0.77658,"osm_id":"217743092","facility_type":"hospital"},{"name":"مستشفى عاشور زيان","address":"مستشفى عاشور زيان","region":"Ouled Djellal","phone":null,"latitude":34.429122,"longitude":5.059944,"osm_id":"306660594","facility_type":"hospital"},{"name":"المؤسسة العمومية للصحة الجوارية","address":"المؤسسة العمومية للصحة الجوارية","region":"El Oued","phone":null,"latitude":33.364536,"longitude":6.853921,"osm_id":"382489579","facility_type":"hospital"},{"name":"Polyclinique Souk El Tenine","address":null,"region":"Béjaïa","phone":null,"latitude":36.626362,"longitude":5.336067,"osm_id":"783031975","facility_type":"hospital"},{"name":"Hôpital de Tipaza","address":"مستشفى تيبازة","region":"Tipaza","phone":null,"latitude":36.586373,"longitude":2.462718,"osm_id":"464200318","facility_type":"hospital"},{"name":"المستشفى الأزرق","address":"المستشفى الأزرق","region":"Djelfa","phone":null,"latitude":34.154262,"longitude":3.493021,"osm_id":"334336389","facility_type":"hospital"},{"name":"Mohamed Echebouki","address":null,"region":"Tébessa","phone":null,"latitude":35.261166,"longitude":7.747689,"osm_id":"519591128","facility_type":"hospital"},{"name":"Centre psychopédagogique Salim Slima","address":null,"region":"Alger","phone":null,"latitude":36.66966,"longitude":2.94758,"osm_id":"435214531","facility_type":"hospital"},{"name":"Hopital","address":null,"region":"Bouira","phone":null,"latitude":36.360382,"longitude":4.321482,"osm_id":"253436569","facility_type":"hospital"},{"name":"Hopital Mohamed BOUDIAF","address":null,"region":"Souk Ahras","phone":null,"latitude":36.509986,"longitude":8.100947,"osm_id":"228460323","facility_type":"hospital"},{"name":"Centre médical","address":null,"region":"Mostaganem","phone":null,"latitude":35.809501,"longitude":0.209817,"osm_id":"782988680","facility_type":"hospital"},{"name":"futur Hôpital","address":null,"region":"Biskra","phone":null,"latitude":34.765684,"longitude":5.896765,"osm_id":"911012466","facility_type":"hospital"},{"name":"Polyclénique bent-essaleh","address":null,"region":"Biskra","phone":null,"latitude":34.650278,"longitude":5.471774,"osm_id":"642175468","facility_type":"hospital"},{"name":"Hopital Merouaha المركز الصحي مرواحة","address":"المركز الصحي مرواحة","region":"Sétif","phone":null,"latitude":36.451376,"longitude":5.305988,"osm_id":"1052301197","facility_type":"hospital"},{"name":"Urgence médicale et chirurgicale","address":null,"region":"Biskra","phone":null,"latitude":34.75024,"longitude":5.909053,"osm_id":"405473118","facility_type":"hospital"},{"name":"Hôpital publique Kherrata","address":"المستشفى العام خراطة","region":"Béjaïa","phone":null,"latitude":36.4939,"longitude":5.277255,"osm_id":"783013958","facility_type":"clinic"},{"name":"مشفى","address":"مشفى","region":"Biskra","phone":null,"latitude":35.032105,"longitude":5.590203,"osm_id":"783115531","facility_type":"hospital"},{"name":"مستوصف","address":"مستوصف","region":"Biskra","phone":null,"latitude":35.122096,"longitude":5.615672,"osm_id":"783039820","facility_type":"hospital"},{"name":"Hôpital de Aïn Touta","address":"المستشفى","region":"Batna","phone":null,"latitude":35.379702,"longitude":5.897189,"osm_id":"783003391","facility_type":"hospital"},{"name":"المؤسسة الإستشفائية المتخصصة في طب النساء و التوليد","address":"المؤسسة الإستشفائية المتخصصة في طب النساء و التوليد","region":"Biskra","phone":null,"latitude":34.849926,"longitude":5.742355,"osm_id":"783094022","facility_type":"hospital"},{"name":"Clinique Hospitalière d'Ophtalmologie","address":null,"region":"Biskra","phone":null,"latitude":34.846615,"longitude":5.71987,"osm_id":"335247825","facility_type":"clinic"},{"name":"Dispensaire Ammour Ahmed","address":null,"region":"Aïn Témouchent","phone":null,"latitude":35.300324,"longitude":-1.131652,"osm_id":"782782501","facility_type":"hospital"},{"name":"Centre de santé","address":null,"region":"Aïn Témouchent","phone":null,"latitude":35.295467,"longitude":-1.140704,"osm_id":"783868821","facility_type":"hospital"},{"name":"مستشفى حديد عيسى تلاغ","address":"مستشفى تلاغ","region":"Sidi Bel Abbès","phone":null,"latitude":34.779369,"longitude":-0.564878,"osm_id":"206501539","facility_type":"hospital"},{"name":"Hôpital","address":"مستشفى","region":"Tlemcen","phone":null,"latitude":34.921579,"longitude":-0.950596,"osm_id":"437386418","facility_type":"hospital"},{"name":"Les Urgences","address":null,"region":"Aïn Témouchent","phone":null,"latitude":35.405304,"longitude":-0.877688,"osm_id":"330412664","facility_type":"hospital"},{"name":"Centre de santé Souk El Tenine","address":null,"region":"Aïn Témouchent","phone":null,"latitude":35.227317,"longitude":-1.505661,"osm_id":"783082683","facility_type":"hospital"},{"name":"centre hospitalier","address":null,"region":"Tlemcen","phone":null,"latitude":35.073275,"longitude":-1.225703,"osm_id":"783881502","facility_type":"hospital"},{"name":"Clinique Mimosa","address":"عيادة ميموزة","region":"Tlemcen","phone":null,"latitude":34.87866,"longitude":-1.341519,"osm_id":"1101337682","facility_type":"hospital"},{"name":"Centre de Santé","address":null,"region":"Bordj Bou Arréridj","phone":null,"latitude":36.464444,"longitude":4.53623,"osm_id":"782747919","facility_type":"hospital"},{"name":"Polyclinique","address":null,"region":"Médéa","phone":null,"latitude":35.886344,"longitude":2.751965,"osm_id":"783058695","facility_type":"hospital"},{"name":"Hôpital Saroub El Khatir","address":null,"region":"Sétif","phone":null,"latitude":36.148841,"longitude":5.683055,"osm_id":"181286781","facility_type":"hospital"},{"name":"Clinique Nabti","address":null,"region":"Sétif","phone":null,"latitude":36.175856,"longitude":5.407445,"osm_id":"783903235","facility_type":"hospital"},{"name":"Hôpital Mouhammed Bennani","address":null,"region":"Bordj Bou Arréridj","phone":null,"latitude":35.940915,"longitude":5.040345,"osm_id":"343571007","facility_type":"hospital"},{"name":"عيادة متعددة الخدمات","address":"عيادة متعددة الخدمات","region":"Skikda","phone":null,"latitude":36.930422,"longitude":6.482432,"osm_id":"854515695","facility_type":"hospital"},{"name":"Hôpital de Tamalous","address":null,"region":"Skikda","phone":null,"latitude":36.839321,"longitude":6.640314,"osm_id":"250854958","facility_type":"hospital"},{"name":"Hôpital psychiatrique Aboubaker Errazi","address":null,"region":"Annaba","phone":null,"latitude":36.898194,"longitude":7.724641,"osm_id":"342286213","facility_type":"hospital"},{"name":"Polyclinique Lessak Abdelmajid","address":null,"region":"Skikda","phone":null,"latitude":36.864873,"longitude":6.921075,"osm_id":"253732901","facility_type":"hospital"},{"name":"Hôpital de El Bouni","address":null,"region":"Annaba","phone":null,"latitude":36.856086,"longitude":7.737157,"osm_id":"242291279","facility_type":"hospital"},{"name":"Polyclinique Es-Senia","address":null,"region":"Oran","phone":null,"latitude":35.652839,"longitude":-0.615112,"osm_id":"441588644","facility_type":"hospital"},{"name":"Salle de soin Hai Ennour","address":null,"region":"Oran","phone":null,"latitude":35.684883,"longitude":-0.673579,"osm_id":"621477049","facility_type":"hospital"},{"name":"Hôpital Medjber Tami","address":null,"region":"Oran","phone":null,"latitude":35.737114,"longitude":-0.755861,"osm_id":"439365861","facility_type":"hospital"},{"name":"Urgences medico-chirurgicales UMC","address":null,"region":"Oran","phone":null,"latitude":35.692546,"longitude":-0.643763,"osm_id":"856482003","facility_type":"hospital"},{"name":"Polyclinique Hai Chouhadas","address":null,"region":"Oran","phone":null,"latitude":35.691373,"longitude":-0.622898,"osm_id":"441598555","facility_type":"hospital"},{"name":"Clinique maternité","address":null,"region":"Oran","phone":null,"latitude":35.677239,"longitude":-0.679063,"osm_id":"323673183","facility_type":"hospital"},{"name":"Centre de sente","address":null,"region":"Annaba","phone":null,"latitude":36.722248,"longitude":7.725912,"osm_id":"429408142","facility_type":"hospital"},{"name":"Hôpital de Bouchegouf","address":null,"region":"Guelma","phone":null,"latitude":36.472209,"longitude":7.725254,"osm_id":"423988629","facility_type":"hospital"},{"name":"Hôpital Psychiatrique","address":null,"region":"Jijel","phone":null,"latitude":36.815399,"longitude":5.765188,"osm_id":"783871541","facility_type":"hospital"},{"name":"عيادة القابلة منادي .س","address":"عيادة القابلة منادي .س","region":"M'Sila","phone":null,"latitude":35.197206,"longitude":4.158768,"osm_id":"783899209","facility_type":"hospital"},{"name":"Hôpital Bachir Rezig","address":null,"region":"M'Sila","phone":null,"latitude":35.201074,"longitude":4.160024,"osm_id":"378518042","facility_type":"hospital"},{"name":"عيادة 500 مسكن","address":"عيادة 500 مسكن","region":"M'Sila","phone":null,"latitude":35.715809,"longitude":4.547415,"osm_id":"496185749","facility_type":"hospital"},{"name":"Centre de reéducation fonctionnelle","address":null,"region":"Djelfa","phone":null,"latitude":34.682162,"longitude":3.247142,"osm_id":"782776469","facility_type":"hospital"},{"name":"Établissement — مستشفلى الأمراض الصدرية","address":"مستشفلى الأمراض الصدرية","region":"Djelfa","phone":null,"latitude":34.670917,"longitude":3.253545,"osm_id":"255431552","facility_type":"hospital"},{"name":"طبيب عام","address":"طبيب عام","region":"M'Sila","phone":null,"latitude":35.188689,"longitude":4.155987,"osm_id":"783868283","facility_type":"hospital"},{"name":"عيادة مشرع الصفاء","address":"عيادة مشرع الصفاء","region":"Tiaret","phone":null,"latitude":35.382104,"longitude":1.056962,"osm_id":"783103561","facility_type":"hospital"},{"name":"EPH Sougueur","address":null,"region":"Tiaret","phone":null,"latitude":35.186583,"longitude":1.491835,"osm_id":"782777393","facility_type":"hospital"},{"name":"Centre de Santé","address":"Centre de Santé bir foda","region":"Djelfa","phone":null,"latitude":34.821143,"longitude":3.763454,"osm_id":"370613623","facility_type":"hospital"},{"name":"Hôpital Colonel Ahmed Bouguera","address":"مستشفى العقيد احمد بوقرة","region":"Djelfa","phone":null,"latitude":35.087324,"longitude":3.023733,"osm_id":"312862199","facility_type":"hospital"},{"name":"Établissement public hospitalier Établissement public hospitalier Youcef Damerdji","address":"المستشفى العمومي يوسف دامرجي","region":"Tiaret","phone":null,"latitude":35.383945,"longitude":1.314748,"osm_id":"311794888","facility_type":"hospital"},{"name":"مستشفى سريانة","address":"مستشفى سريانة","region":"Batna","phone":null,"latitude":35.690019,"longitude":6.18454,"osm_id":"783028970","facility_type":"hospital"},{"name":"Hôpital de Bormadia","address":null,"region":"Relizane","phone":null,"latitude":35.706287,"longitude":0.574319,"osm_id":"783054824","facility_type":"hospital"},{"name":"centre d'hemodialyse maghreb","address":null,"region":"Mila","phone":null,"latitude":36.169321,"longitude":6.174572,"osm_id":"439495565","facility_type":"hospital"},{"name":"EPH Bouguirat","address":null,"region":"Mostaganem","phone":null,"latitude":35.748602,"longitude":0.266581,"osm_id":"315303334","facility_type":"hospital"},{"name":"Établissement — مقرة","address":null,"region":"M'Sila","phone":null,"latitude":35.616699,"longitude":5.084007,"osm_id":"506799137","facility_type":"hospital"},{"name":"Hopital Said Aouamri","address":null,"region":"Sétif","phone":null,"latitude":36.338338,"longitude":5.09244,"osm_id":"293831471","facility_type":"hospital"},{"name":"EPH","address":null,"region":"Médéa","phone":null,"latitude":35.890376,"longitude":3.146208,"osm_id":"405672016","facility_type":"hospital"},{"name":"Hôpital","address":null,"region":"Djelfa","phone":null,"latitude":35.354518,"longitude":3.365481,"osm_id":"473889987","facility_type":"hospital"},{"name":"العيادة المتعددة الخدمات","address":"العيادة المتعددة الخدمات","region":"Médéa","phone":null,"latitude":35.630859,"longitude":3.227426,"osm_id":"363124669","facility_type":"hospital"},{"name":"عيادة الولادة - سليمان عميرات","address":"عيادة الولادة - سليمان عميرات","region":"Oum El Bouaghi","phone":null,"latitude":35.875458,"longitude":7.110773,"osm_id":"310710574","facility_type":"hospital"},{"name":"Hôpital","address":null,"region":"Mila","phone":null,"latitude":36.398138,"longitude":6.325933,"osm_id":"783032259","facility_type":"hospital"},{"name":"الولادة الريفية","address":"الولادة الريفية","region":"Touggourt","phone":null,"latitude":32.947461,"longitude":5.981257,"osm_id":"404426353","facility_type":"hospital"},{"name":"Hôpital d'El Harrouch","address":null,"region":"Skikda","phone":null,"latitude":36.655585,"longitude":6.838125,"osm_id":"214448305","facility_type":"hospital"},{"name":"مركز صحي","address":"مركز صحي","region":"Mila","phone":null,"latitude":36.392926,"longitude":6.127615,"osm_id":"328212588","facility_type":"hospital"},{"name":"Salle de Soins","address":null,"region":"Mila","phone":null,"latitude":36.411903,"longitude":6.128185,"osm_id":"234050280","facility_type":"hospital"},{"name":"Hôpital Militaire de Ali Mendjeli","address":"المستشفى العسكري علي منجلي","region":"Constantine","phone":null,"latitude":36.246595,"longitude":6.590154,"osm_id":"198095058","facility_type":"hospital"},{"name":"Salle de soins Al Arsa","address":null,"region":"Mila","phone":null,"latitude":36.439392,"longitude":6.158416,"osm_id":"257564975","facility_type":"hospital"},{"name":"Polyclinique Lefilef Mohamed","address":null,"region":"Mila","phone":null,"latitude":36.469096,"longitude":6.173776,"osm_id":"170403442","facility_type":"hospital"},{"name":"مستشفى عسلي محمد","address":"مستشفى عسلي محمد","region":"Djelfa","phone":null,"latitude":34.858429,"longitude":4.153022,"osm_id":"372780530","facility_type":"hospital"},{"name":"Hopital Mohamed Meddahi","address":null,"region":"Mila","phone":null,"latitude":36.409771,"longitude":5.950224,"osm_id":"240062704","facility_type":"hospital"},{"name":"centre de santé","address":"طبيبة خلود","region":"Sétif","phone":null,"latitude":36.195202,"longitude":5.428425,"osm_id":"288655618","facility_type":"hospital"},{"name":"عيادة متعددة الخدمات الصحية محفوظي العمري","address":"عيادة متعددة الخدمات الصحية محفوظي العمري","region":"Bordj Bou Arréridj","phone":null,"latitude":36.130479,"longitude":5.079326,"osm_id":"783880306","facility_type":"hospital"},{"name":"مشفى","address":"مشفى","region":"Mila","phone":null,"latitude":36.117717,"longitude":5.968768,"osm_id":"783901208","facility_type":"hospital"},{"name":"قاعة علاج الطاحونة","address":null,"region":"Skikda","phone":null,"latitude":36.80321,"longitude":6.516014,"osm_id":"302881532","facility_type":"hospital"},{"name":"Hôpital Psychiatrique de Tiaret","address":"مستشفى الامراض العقلية لتيارت","region":"Tiaret","phone":null,"latitude":35.386417,"longitude":1.312381,"osm_id":"983233983","facility_type":"hospital"},{"name":"Hôpital M'Hamed Yazid","address":"مستشفى امحمد يزيد","region":"Blida","phone":null,"latitude":36.477286,"longitude":2.809589,"osm_id":"356793097","facility_type":"hospital"},{"name":"Centre Médicale Djenan Mabrouk","address":null,"region":"Alger","phone":null,"latitude":36.724406,"longitude":3.124874,"osm_id":"241265165","facility_type":"hospital"},{"name":"مستشفى الأمومة","address":"مستشفى الأمومة","region":"Ghardaïa","phone":null,"latitude":32.486248,"longitude":3.679982,"osm_id":"258516306","facility_type":"hospital"},{"name":"Hopital De Police","address":"مستشفى الشرطة","region":"Alger","phone":null,"latitude":36.757551,"longitude":3.041628,"osm_id":"263624389","facility_type":"hospital"},{"name":"Annexe maternité","address":"مصلحة الأمومة","region":"Aïn Defla","phone":null,"latitude":36.573266,"longitude":1.905377,"osm_id":"240618208","facility_type":"hospital"},{"name":"Hôpital","address":"مستشفى","region":"Aïn Defla","phone":null,"latitude":36.572459,"longitude":1.905896,"osm_id":"240618217","facility_type":"hospital"},{"name":"Établissement — سور الغزلان","address":null,"region":"Bouira","phone":null,"latitude":36.145358,"longitude":3.688515,"osm_id":"171230395","facility_type":"hospital"},{"name":"مركز صحي","address":"مركز صحي","region":"Relizane","phone":null,"latitude":35.753813,"longitude":0.576744,"osm_id":"783081061","facility_type":"hospital"},{"name":"العيادة المتعددة الخدمات غليزان","address":"العيادة المتعددة الخدمات غليزان","region":"Relizane","phone":null,"latitude":35.732075,"longitude":0.560487,"osm_id":"783904004","facility_type":"hospital"},{"name":"مستشفى بسعة 120 سرير","address":"مستشفى بسعة 120 سرير","region":"Chlef","phone":null,"latitude":35.875137,"longitude":1.102267,"osm_id":"470060592","facility_type":"hospital"},{"name":"Hôpital de Bordj Bou Naâma","address":"مستشفى برج بونعامة","region":"Tissemsilt","phone":null,"latitude":35.869898,"longitude":1.617816,"osm_id":"334767319","facility_type":"hospital"},{"name":"Hôpital Ernesto Che Guevara","address":null,"region":"Mostaganem","phone":null,"latitude":35.934701,"longitude":0.094438,"osm_id":"455577053","facility_type":"hospital"},{"name":"Centre Sanitaire","address":null,"region":"Annaba","phone":null,"latitude":36.903907,"longitude":7.757692,"osm_id":"377885025","facility_type":"hospital"},{"name":"CHU Ibn Rochd","address":null,"region":"Annaba","phone":null,"latitude":36.910426,"longitude":7.746627,"osm_id":"127063995","facility_type":"hospital"},{"name":"Service Médecine Interne d'Hôpital Birtraria","address":"مصلحة الطب الداخلي بطرارية","region":"Alger","phone":null,"latitude":36.76843,"longitude":3.025936,"osm_id":"1422963160","facility_type":"hospital"},{"name":"Hôpital Bologhine Ibn Ziri","address":"المؤسسة العمومية الاستشفائية بولوغين ابن زيري","region":"Alger","phone":null,"latitude":36.810639,"longitude":2.978957,"osm_id":"368356283","facility_type":"hospital"},{"name":"مستشفى بوضياف محمد","address":"Hôpital mouhamed boudiaf","region":"Oum El Bouaghi","phone":null,"latitude":35.870319,"longitude":7.11274,"osm_id":"358986645","facility_type":"hospital"},{"name":"EPH Didouche Morad","address":null,"region":"Constantine","phone":null,"latitude":36.453807,"longitude":6.630087,"osm_id":"273380010","facility_type":"hospital"},{"name":"المركز النفسي البيداغوجي","address":"المركز النفسي البيداغوجي","region":"Ouled Djellal","phone":null,"latitude":34.425622,"longitude":5.054462,"osm_id":"309547354","facility_type":"hospital"},{"name":"مستشفى سيدي خالد","address":"مستشفى سيدي خالد","region":"Ouled Djellal","phone":null,"latitude":34.40279,"longitude":4.99251,"osm_id":"313652196","facility_type":"hospital"},{"name":"Nouvel Hôpital Abderezzak Bouhara","address":null,"region":"Skikda","phone":null,"latitude":36.862364,"longitude":6.897771,"osm_id":"253913494","facility_type":"hospital"},{"name":"Centre De Sante 1008","address":null,"region":"Bordj Bou Arréridj","phone":null,"latitude":36.082592,"longitude":4.770397,"osm_id":"388025475","facility_type":"hospital"},{"name":"Hôpital Militaire de Blida","address":"المستشفى العسكري البليدة","region":"Blida","phone":null,"latitude":36.465357,"longitude":2.795678,"osm_id":"353816535","facility_type":"hospital"},{"name":"Centre Medicale","address":null,"region":"Boumerdès","phone":null,"latitude":36.566424,"longitude":3.595658,"osm_id":"560399388","facility_type":"hospital"},{"name":"Hôpital Bernez - Urgence et maternité","address":"مستشفى برناز","region":"Béchar","phone":null,"latitude":31.554647,"longitude":-2.429679,"osm_id":"368211472","facility_type":"hospital"},{"name":"Centre médical Boudjemâa Moghni","address":null,"region":"Alger","phone":null,"latitude":36.740359,"longitude":3.098359,"osm_id":"783897428","facility_type":"hospital"},{"name":"مركز الصحة","address":"microsoft/BuildingFootprints — مركز الصحة","region":"Bordj Bou Arréridj","phone":null,"latitude":36.464445,"longitude":4.536255,"osm_id":"1186746819","facility_type":"hospital"},{"name":"الدكتور عبد اللطيف توفيق الامراض الباطنية وأمراض النساء","address":"microsoft/BuildingFootprints — الدكتور عبد اللطيف توفيق الامراض الباطنية وأمراض النساء","region":"M'Sila","phone":null,"latitude":35.237162,"longitude":4.159447,"osm_id":"1186195621","facility_type":"hospital"},{"name":"EHS Seraïdi","address":null,"region":"Annaba","phone":null,"latitude":36.90918,"longitude":7.676673,"osm_id":"378148732","facility_type":"hospital"},{"name":"Hôpital","address":"مستشفى قصر البخاري","region":"Médéa","phone":null,"latitude":35.885428,"longitude":2.747055,"osm_id":"184793557","facility_type":"hospital"},{"name":"Clinique Ophtalmologique","address":null,"region":"Alger","phone":null,"latitude":36.737445,"longitude":3.032128,"osm_id":"217506872","facility_type":"hospital"},{"name":"Polyclinique","address":null,"region":"Tébessa","phone":null,"latitude":35.206786,"longitude":8.170486,"osm_id":"209561271","facility_type":"hospital"},{"name":"Hôpital","address":null,"region":"Bordj Bou Arréridj","phone":null,"latitude":36.070883,"longitude":4.473954,"osm_id":"314330600","facility_type":"hospital"},{"name":"Houam Ali hospital","address":"مستشفى على هوام","region":"Tébessa","phone":null,"latitude":35.673528,"longitude":8.010822,"osm_id":"1409416715","facility_type":"hospital"},{"name":"Salle de soins Aberouak","address":"قاعة العلاج ابرواق","region":"Béjaïa","phone":null,"latitude":36.699233,"longitude":5.000654,"osm_id":"783104651","facility_type":"hospital"},{"name":"Hôpital Frantz Fanon","address":"مستشفى فرانز فانون","region":"Béjaïa","phone":null,"latitude":36.75657,"longitude":5.08362,"osm_id":"156238581","facility_type":"hospital"},{"name":"Centre médical","address":null,"region":"Constantine","phone":null,"latitude":36.123161,"longitude":6.784733,"osm_id":"275745143","facility_type":"hospital"},{"name":"Hôpital Nedir Mohamed","address":"مستشفى ندير محمد","region":"Tizi Ouzou","phone":null,"latitude":36.708651,"longitude":4.054505,"osm_id":"370226259","facility_type":"hospital"},{"name":"مستشفى الهادي فليسي القطار","address":"مستشفى الهادي فليسي القطار","region":"Alger","phone":null,"latitude":36.785338,"longitude":3.051685,"osm_id":"26253281","facility_type":"hospital"},{"name":"مستشفى الجامعي نفيسة حمود","address":"مستشفى الجامعي نفيسة حمود","region":"Alger","phone":null,"latitude":36.735968,"longitude":3.105562,"osm_id":"28825181","facility_type":"hospital"},{"name":"Clinique Zighout Amine","address":null,"region":"Alger","phone":null,"latitude":36.786376,"longitude":3.026083,"osm_id":"420557893","facility_type":"hospital"},{"name":"Centre de transfusion sanguine publique","address":null,"region":"Béjaïa","phone":null,"latitude":36.753079,"longitude":5.07757,"osm_id":"422849924","facility_type":"hospital"},{"name":"المركز الاستشفائي الجامعي بني مسوس","address":"المركز الاستشفائي الجامعي بني مسوس","region":"Alger","phone":null,"latitude":36.778811,"longitude":2.981382,"osm_id":"38224201","facility_type":"hospital"},{"name":"Hôpital de Birtraria","address":"مستشفى بئر طرارية","region":"Alger","phone":null,"latitude":36.773792,"longitude":3.040489,"osm_id":"55035272","facility_type":"hospital"},{"name":"EHU USTO - 1 Novembre","address":"المؤسسة العمومية الإستشفائية أول نوفمبر","region":"Oran","phone":null,"latitude":35.698354,"longitude":-0.582995,"osm_id":"71816173","facility_type":"hospital"},{"name":"UMC (Les urgences)","address":null,"region":"Aïn Témouchent","phone":null,"latitude":35.29993,"longitude":-1.140442,"osm_id":"549625981","facility_type":"hospital"},{"name":"Centre de Santé","address":null,"region":"Médéa","phone":null,"latitude":35.895413,"longitude":2.755116,"osm_id":"184793541","facility_type":"hospital"},{"name":"مستشفى آفلو","address":"مستشفى آفلو","region":"Laghouat","phone":null,"latitude":34.116935,"longitude":2.094137,"osm_id":"463542754","facility_type":"hospital"},{"name":"Hopital Ibn sina","address":"مستشفى إبن سينا","region":"Tiaret","phone":null,"latitude":35.062423,"longitude":1.053724,"osm_id":"318308937","facility_type":"hospital"},{"name":"مستشفى بشير بن ناصر","address":null,"region":"Biskra","phone":null,"latitude":34.849911,"longitude":5.743901,"osm_id":"377862818","facility_type":"hospital"},{"name":"قاعة علاج","address":null,"region":"El M'Ghair","phone":null,"latitude":34.214349,"longitude":5.765936,"osm_id":"907383920","facility_type":"hospital"},{"name":"احمد بن بلة","address":null,"region":"Khenchela","phone":null,"latitude":35.317692,"longitude":6.737192,"osm_id":"1275864753","facility_type":"hospital"},{"name":"مستشفى تاوريرت آغيل","address":"مستشفى تاوريرت آغيل","region":"Béjaïa","phone":null,"latitude":36.699675,"longitude":4.696674,"osm_id":"783004472","facility_type":"hospital"},{"name":"Polyclinique 700 Logements","address":"مستوصف 700 مسكن","region":"Skikda","phone":null,"latitude":36.866958,"longitude":6.900587,"osm_id":"283722824","facility_type":"hospital"},{"name":"صيدلية بوجاهم","address":"صيدلية بوجاهم","region":"Guelma","phone":null,"latitude":36.370388,"longitude":7.529895,"osm_id":"783050169","facility_type":"hospital"},{"name":"Centre de soins Tiliouacadi","address":"مركز رعاية ثلواقاضي","region":"Béjaïa","phone":null,"latitude":36.602386,"longitude":4.631381,"osm_id":"782757798","facility_type":"hospital"},{"name":"مستشفى قاضي محمد","address":"مستشفى قاضي محمد","region":"Saïda","phone":null,"latitude":34.039136,"longitude":0.088868,"osm_id":"318492266","facility_type":"hospital"},{"name":"المركز الصحي الجواري 5 جويلية","address":"المركز الصحي الجواري 5 جويلية","region":"Bordj Bou Arréridj","phone":null,"latitude":36.072134,"longitude":4.7443,"osm_id":"783040800","facility_type":"hospital"},{"name":"عيادة طبية","address":"عيادة طبية","region":"Adrar","phone":null,"latitude":27.410022,"longitude":-0.182864,"osm_id":"364829436","facility_type":"hospital"},{"name":"مشتشفى البلدية","address":"مشتشفى البلدية","region":"Adrar","phone":null,"latitude":27.228023,"longitude":-0.192965,"osm_id":"331824647","facility_type":"hospital"},{"name":"مستشفي الأم والطفل - حي عبد القادر","address":"مستشفي الأم والطفل - حي عبد القادر","region":"Ouargla","phone":null,"latitude":31.952261,"longitude":5.323104,"osm_id":"377113766","facility_type":"hospital"},{"name":"المؤسسة العمومية للصحة الجوارية الحجيرة","address":"المؤسسة العمومية للصحة الجوارية الحجيرة","region":"Touggourt","phone":null,"latitude":32.617651,"longitude":5.511686,"osm_id":"430175692","facility_type":"hospital"},{"name":"استعجالات طبية طواهرية","address":"استعجالات طبية طواهرية","region":"El Oued","phone":null,"latitude":33.331891,"longitude":6.886506,"osm_id":"783105389","facility_type":"hospital"},{"name":"مستشفى القصر","address":"مستشفى القصر","region":"Ouargla","phone":null,"latitude":31.96719,"longitude":5.323536,"osm_id":"385078367","facility_type":"hospital"},{"name":"قاعة العلاج الكم","address":"قاعة العلاج الكم","region":"Ouargla","phone":null,"latitude":32.262037,"longitude":5.326629,"osm_id":"440382904","facility_type":"hospital"},{"name":"عيادة متعددة الخدمات","address":"عيادة متعددة الخدمات","region":"Ouargla","phone":null,"latitude":32.169729,"longitude":5.346532,"osm_id":"440384932","facility_type":"hospital"},{"name":"Polyclinique","address":"العيادة متعددة الخدمات","region":"Touggourt","phone":null,"latitude":32.945971,"longitude":5.97657,"osm_id":"404426340","facility_type":"hospital"},{"name":"مستشفى بلدية العالية","address":"مستشفى بلدية العالية","region":"Touggourt","phone":null,"latitude":32.696513,"longitude":5.425285,"osm_id":"369710599","facility_type":"hospital"},{"name":"مستشفى العيون","address":"مستشفى العيون","region":"Tindouf","phone":null,"latitude":27.729335,"longitude":-8.011631,"osm_id":"420902099","facility_type":"hospital"},{"name":"عيادة بني موحلي","address":"عيادة بني موحلي","region":"Béjaïa","phone":null,"latitude":36.516964,"longitude":4.906507,"osm_id":"783900358","facility_type":"hospital"},{"name":"الحكيمة بوعروج","address":"الحكيمة بوعروج","region":"Mila","phone":null,"latitude":36.448368,"longitude":6.264718,"osm_id":"783894518","facility_type":"hospital"},{"name":"المستوصف","address":"المستوصف","region":"Sétif","phone":null,"latitude":35.815995,"longitude":5.50214,"osm_id":"315143623","facility_type":"hospital"},{"name":"مستوصف طبي","address":"مستوصف طبي","region":"Batna","phone":null,"latitude":35.217308,"longitude":6.54495,"osm_id":"783839378","facility_type":"hospital"},{"name":"عيادة رمزي صايم","address":"عيادة رمزي صايم","region":"Oum El Bouaghi","phone":null,"latitude":35.790797,"longitude":7.401075,"osm_id":"783044237","facility_type":"hospital"},{"name":"مستشفى الأمومة والتوليد","address":"مستشفى الأمومة والتوليد","region":"Oum El Bouaghi","phone":null,"latitude":35.794986,"longitude":7.394377,"osm_id":"783012784","facility_type":"hospital"},{"name":"service des urgences","address":null,"region":"Bouira","phone":null,"latitude":36.37014,"longitude":3.884205,"osm_id":"255333071","facility_type":"clinic"},{"name":"قاعة علاج","address":"قاعة علاج","region":"Bouira","phone":null,"latitude":36.235592,"longitude":3.646872,"osm_id":"783898287","facility_type":"hospital"},{"name":"طبيبة عامة دحماني","address":"طبيبة عامة دحماني","region":"Bouira","phone":null,"latitude":36.234499,"longitude":3.648844,"osm_id":"783898640","facility_type":"hospital"},{"name":"مستشفى متعدد الخدمات","address":"مستشفى متعدد الخدمات","region":"Bordj Bou Arréridj","phone":null,"latitude":36.120959,"longitude":4.373895,"osm_id":"783114984","facility_type":"hospital"},{"name":"مركز للصحة الجوارية","address":"مركز للصحة الجوارية","region":"Djelfa","phone":null,"latitude":34.839912,"longitude":4.172168,"osm_id":"783111550","facility_type":"hospital"},{"name":"القطاع الصحي سيدي سليمان","address":"القطاع الصحي سيدي سليمان","region":"M'Sila","phone":null,"latitude":35.190721,"longitude":4.156095,"osm_id":"783869492","facility_type":"hospital"},{"name":"مستشفى","address":"مستشفى","region":"Bouira","phone":null,"latitude":35.876666,"longitude":3.776954,"osm_id":"502390473","facility_type":"hospital"},{"name":"عيادة متعددة الخدمات بني شبانة","address":"عيادة متعددة الخدمات بني شبانة","region":"Béjaïa","phone":null,"latitude":36.468884,"longitude":4.867103,"osm_id":"783082851","facility_type":"hospital"},{"name":"عيادة شياد حمزة للعلاج الطبيعي","address":"عيادة شياد حمزة للعلاج الطبيعي","region":"Sétif","phone":null,"latitude":35.817353,"longitude":5.51671,"osm_id":"783894929","facility_type":"hospital"},{"name":"مستشفى سوقر قرميط ناصر","address":"مستشفى سوقر قرميط ناصر","region":"Tiaret","phone":null,"latitude":35.186415,"longitude":1.491676,"osm_id":"783872975","facility_type":"hospital"},{"name":"cabinet CARDIOLOGUE DR BELKHIR","address":null,"region":"Médéa","phone":null,"latitude":36.22852,"longitude":3.306567,"osm_id":"783898286","facility_type":"hospital"},{"name":"المستشفى القديم","address":"المستشفى القديم","region":"Guelma","phone":null,"latitude":36.132365,"longitude":7.530063,"osm_id":"783038492","facility_type":"hospital"},{"name":"المؤسسة العمومية الاستشفائية هواري بومدين","address":"المؤسسة العمومية الاستشفائية هواري بومدين","region":"Guelma","phone":null,"latitude":36.13195,"longitude":7.533413,"osm_id":"783038243","facility_type":"hospital"},{"name":"عيادة الصندوق الوطني للتوفير والاحتياط","address":"عيادة الصندوق الوطني للتوفير والاحتياط","region":"El Bayadh","phone":null,"latitude":33.674133,"longitude":1.024877,"osm_id":"783028829","facility_type":"hospital"},{"name":"مستشفى أمراض الأطفال سان تيراس","address":"مستشفى أمراض الأطفال سان تيراس","region":"Annaba","phone":null,"latitude":36.91895,"longitude":7.760299,"osm_id":"617826292","facility_type":"hospital"},{"name":"المؤسسة العمومية للصحة الجوارية","address":"المؤسسة العمومية للصحة الجوارية","region":"Bordj Badji Mokhtar","phone":null,"latitude":21.331046,"longitude":0.960552,"osm_id":"783037177","facility_type":"hospital"},{"name":"مستوصف","address":"مستوصف","region":"Béni Abbès","phone":null,"latitude":30.128205,"longitude":-2.168768,"osm_id":"783082108","facility_type":"hospital"},{"name":"Établissement — ﺗﻴﻤﻴﻤﻮن","address":null,"region":"Timimoun","phone":null,"latitude":29.261606,"longitude":0.227398,"osm_id":"546631427","facility_type":"hospital"},{"name":"عياط بالقاسم","address":"عياط بالقاسم","region":"M'Sila","phone":null,"latitude":35.214023,"longitude":4.300649,"osm_id":"439164816","facility_type":"hospital"},{"name":"l’Etablissement public hospitalier de Tissemsilt","address":null,"region":"Tissemsilt","phone":null,"latitude":35.601845,"longitude":1.82075,"osm_id":"308557382","facility_type":"hospital"},{"name":"Hôpital Brahim Tirichine","address":"مستشفى ابراهيم تيريشين","region":"Blida","phone":null,"latitude":36.47693,"longitude":2.833215,"osm_id":"357284638","facility_type":"hospital"},{"name":"عيادة المجاهدة خديمو فاطمة","address":"عيادة المجاهدة خديمو فاطمة","region":"Ouargla","phone":null,"latitude":31.927181,"longitude":5.349025,"osm_id":"388002439","facility_type":"hospital"},{"name":"قاعة العلاج خلوفة","address":"قاعة العلاج خلوفة","region":"Chlef","phone":null,"latitude":36.481172,"longitude":1.494424,"osm_id":"752847599","facility_type":"hospital"},{"name":"بوصيدة كسال","address":"بوصيدة كسال","region":"Bordj Bou Arréridj","phone":null,"latitude":35.902629,"longitude":4.889346,"osm_id":"783083847","facility_type":"hospital"},{"name":"المركز الصحي شيمينو","address":"المركز الصحي شيمينو","region":"Sétif","phone":null,"latitude":36.191471,"longitude":5.420699,"osm_id":"783104326","facility_type":"hospital"},{"name":"العربي سلامي","address":"العربي سلامي","region":"Sétif","phone":null,"latitude":36.272172,"longitude":5.127125,"osm_id":"783049883","facility_type":"hospital"},{"name":"Hopital Merouani Abed","address":null,"region":"Chlef","phone":null,"latitude":36.204188,"longitude":1.261025,"osm_id":"325410442","facility_type":"hospital"},{"name":"Ammas n Tujjya d Tazmert Gerib Mulud","address":null,"region":"Tizi Ouzou","phone":null,"latitude":36.605302,"longitude":4.11731,"osm_id":"514045216","facility_type":"hospital"},